{"type":"Topology","transform":{"scale":[0.000055563786306723505,0.000041945932776763137],"translate":[-74.25559136315213,40.49611539517033]},"objects":{"boroughs":{"type":"GeometryCollection","geometries":[{"type":"MultiPolygon","arcs":[[[0]],[[1]],[[2]],[[3]]],"id":5,"properties":{"name":"Staten Island"}},{"type":"MultiPolygon","arcs":[[[4]],[[5]],[[6]],[[7]],[[8,9]],[[10]],[[11]],[[12]],[[13]],[[14]],[[15,16,17]],[[18,19]],[[20,21]],[[22,23]],[[24]],[[25,26,27,28]]],"id":4,"properties":{"name":"Queens"}},{"type":"MultiPolygon","arcs":[[[29]],[[30]],[[31]],[[32]],[[33]],[[34]],[[35]],[[36,-9]],[[37]],[[38]],[[39]],[[-16,40]],[[41]],[[42,-17]],[[43]],[[44]],[[45]],[[-26,46,-23,-22,-20,47,48,49,50,51,52,53,54,55,56,57,58,59,60,61,62,63,64,65,66,67,68,69,70,71,72,73,74,75,76,77,78,79,80,81,82,83,84,85,86,87],[88]]],"id":3,"properties":{"name":"Brooklyn"}},{"type":"MultiPolygon","arcs":[[[89,-50]],[[90,-52]],[[91,-54]],[[92,-56]],[[93]],[[94,-58]],[[95]],[[96,-60]],[[97,-62]],[[-64,98]],[[99,-66]],[[100,-68]],[[101]],[[102,-70]],[[103,-72]],[[104,-76]],[[105,-83]],[[106,-87]],[[107]],[[108]],[[109]],[[110]],[[111,112]]],"id":1,"properties":{"name":"Manhattan"}},{"type":"MultiPolygon","arcs":[[[113]],[[114]],[[115]],[[116]],[[117]],[[118]],[[119]],[[120]],[[121]],[[122]],[[123]],[[124]],[[125]],[[126]],[[127]],[[128]],[[129]],[[130]],[[131]],[[132]],[[-113,133,-135,135]]],"id":2,"properties":{"name":"Bronx"}}]},"schools":{"type":"GeometryCollection","geometries":[{"type":"Point","coordinates":[1117,767],"properties":{"2001":3973,"2011":3874,"name":"31R455 - [TOTTENVILLE HIGH SCHOOL]","street":"100 LUTEN AVENUE","city":"STATEN ISLAND","state":"NY","zip":"10312"}},{"type":"Point","coordinates":[2518,1711],"properties":{"2001":718,"2011":1104,"name":"31R605 - [STATEN ISLAND TECHNICAL HS]","street":"485 CLAWSON STREET","city":"STATEN ISLAND","state":"NY","zip":"10306"}},{"type":"Point","coordinates":[2663,1747],"properties":{"2001":1940,"2011":2658,"name":"31R440 - [NEW DORP HIGH SCHOOL]","street":"465 NEW DORP LANE","city":"STATEN ISLAND","state":"NY","zip":"10306"}},{"type":"Point","coordinates":[4852,1933],"properties":{"2001":0,"2011":191,"name":"21K728 - [LIBERATION DIPLOMA PLUS]","street":"2865 WEST 19TH STREET","city":"BROOKLYN","state":"NY","zip":"11224"}},{"type":"Point","coordinates":[5768,2021],"properties":{"2001":799,"2011":1022,"name":"22K535 - [L.M. GOLDSTEIN HIGH SCHOOL FOR]","street":"1830 SHORE BOULEVARD","city":"BROOKLYN","state":"NY","zip":"11235"}},{"type":"Point","coordinates":[5116,2048],"properties":{"2001":0,"2011":481,"name":"21K344 - [RACHEL CARSON HIGH SCHOOL FOR]","street":"521 WEST AVENUE","city":"BROOKLYN","state":"NY","zip":"11224"}},{"type":"Point","coordinates":[1731,2048],"properties":{"2001":0,"2011":532,"name":"31R047 - [CSI HIGH SCHOOL FOR INTERNATIO]","street":"100 ESSEX DRIVE","city":"STATEN ISLAND","state":"NY","zip":"10314"}},{"type":"Point","coordinates":[1731,2048],"properties":{"2001":0,"2011":408,"name":"31R064 - [GAYNOR MCCOWN EXPEDITIONARY LE]","street":"100 ESSEX DRIVE","city":"STATEN ISLAND","state":"NY","zip":"10314"}},{"type":"Point","coordinates":[5163,2062],"properties":{"2001":2653,"2011":2595,"name":"21K410 - [ABRAHAM LINCOLN HIGH SCHOOL]","street":"2800 OCEAN PARKWAY","city":"BROOKLYN","state":"NY","zip":"11235"}},{"type":"Point","coordinates":[5253,2076],"properties":{"2001":1554,"2011":956,"name":"21K620 - [WILLIAM E. GRADY HIGH SCHOOL]","street":"25 BRIGHTON  4TH ROAD","city":"BROOKLYN","state":"NY","zip":"11235"}},{"type":"Point","coordinates":[7784,2133],"properties":{"2001":0,"2011":203,"name":"27Q324 - [ROCKAWAY PARK HIGH SCHOOL FOR]","street":"100-00 BEACH CHANNEL DRIVE","city":"QUEENS","state":"NY","zip":"11694"}},{"type":"Point","coordinates":[7784,2133],"properties":{"2001":0,"2011":98,"name":"27Q351 - [ROCKAWAY COLLEGIATE HIGH SCHOO]","street":"100-00 BEACH CHANNEL DRIVE","city":"QUEENS","state":"NY","zip":"11694"}},{"type":"Point","coordinates":[7784,2133],"properties":{"2001":2095,"2011":684,"name":"27Q410 - [BEACH CHANNEL HIGH SCHOOL]","street":"100-00 BEACH CHANNEL DRIVE","city":"QUEENS","state":"NY","zip":"11694"}},{"type":"Point","coordinates":[4928,2219],"properties":{"2001":3087,"2011":2168,"name":"21K540 - [JOHN DEWEY HIGH SCHOOL]","street":"50 AVENUE X","city":"BROOKLYN","state":"NY","zip":"11223"}},{"type":"Point","coordinates":[5741,2312],"properties":{"2001":3178,"2011":1928,"name":"22K495 - [SHEEPSHEAD BAY HIGH SCHOOL]","street":"3000 AVENUE X","city":"BROOKLYN","state":"NY","zip":"11235"}},{"type":"Point","coordinates":[4865,2334],"properties":{"2001":0,"2011":343,"name":"21K337 - [INTERNATIONAL HIGH SCHOOL AT L]","street":"2630 BENSON AVENUE","city":"BROOKLYN","state":"NY","zip":"11214"}},{"type":"Point","coordinates":[4865,2334],"properties":{"2001":0,"2011":370,"name":"21K348 - [HIGH SCHOOL OF SPORTS MANAGEME]","street":"2630 BENSON AVENUE","city":"BROOKLYN","state":"NY","zip":"11214"}},{"type":"Point","coordinates":[4865,2334],"properties":{"2001":0,"2011":251,"name":"21K559 - [LIFE ACADEMY HIGH SCHOOL FOR F]","street":"2630 BENSON AVENUE","city":"BROOKLYN","state":"NY","zip":"11214"}},{"type":"Point","coordinates":[4865,2334],"properties":{"2001":0,"2011":226,"name":"21K572 - [EXPEDITIONARY LEARNING SCHOOL]","street":"2630 BENSON AVENUE","city":"BROOKLYN","state":"NY","zip":"11214"}},{"type":"Point","coordinates":[2383,2441],"properties":{"2001":2631,"2011":3235,"name":"31R460 - [SUSAN E. WAGNER HIGH SCHOOL]","street":"1200 MANOR ROAD","city":"STATEN ISLAND","state":"NY","zip":"10314"}},{"type":"Point","coordinates":[8847,2512],"properties":{"2001":0,"2011":445,"name":"27Q260 - [FREDERICK DOUGLASS ACADEMY VI]","street":"8-21 BAY 25 STREET","city":"QUEENS","state":"NY","zip":"11691"}},{"type":"Point","coordinates":[8847,2512],"properties":{"2001":0,"2011":310,"name":"27Q302 - [QUEENS HIGH SCHOOL FOR INFORMA]","street":"8-21 BAY 25 STREET","city":"QUEENS","state":"NY","zip":"11691"}},{"type":"Point","coordinates":[8847,2512],"properties":{"2001":1373,"2011":0,"name":"27Q465 - [FAR ROCKAWAY HIGH SCHOOL]","street":"8-21 BAY 25 STREET","city":"QUEENS","state":"NY","zip":"11691"}},{"type":"Point","coordinates":[5527,2708],"properties":{"2001":3861,"2011":3076,"name":"22K425 - [JAMES MADISON HIGH SCHOOL]","street":"3787 BEDFORD AVENUE","city":"BROOKLYN","state":"NY","zip":"11229"}},{"type":"Point","coordinates":[3031,2739],"properties":{"2001":137,"2011":179,"name":"31R470 - [CONCORD HIGH SCHOOL]","street":"109 RHINE AVENUE","city":"STATEN ISLAND","state":"NY","zip":"10304"}},{"type":"Point","coordinates":[4533,2798],"properties":{"2001":2728,"2011":3276,"name":"20K445 - [NEW UTRECHT HIGH SCHOOL]","street":"1601 80 STREET","city":"BROOKLYN","state":"NY","zip":"11214"}},{"type":"Point","coordinates":[5320,2965],"properties":{"2001":3775,"2011":4022,"name":"21K525 - [EDWARD R. MURROW HIGH SCHOOL]","street":"1600 AVENUE L","city":"BROOKLYN","state":"NY","zip":"11230"}},{"type":"Point","coordinates":[4933,2973],"properties":{"2001":3379,"2011":3108,"name":"20K505 - [FRANKLIN D. ROOSEVELT HIGH SCH]","street":"5800 20 AVENUE","city":"BROOKLYN","state":"NY","zip":"11204"}},{"type":"Point","coordinates":[3914,3116],"properties":{"2001":4394,"2011":4275,"name":"20K490 - [FORT HAMILTON HIGH SCHOOL]","street":"8301 SHORE ROAD","city":"BROOKLYN","state":"NY","zip":"11209"}},{"type":"Point","coordinates":[5451,3240],"properties":{"2001":485,"2011":0,"name":"22K555 - [BROOKLYN COLLEGE ACADEMY]","street":"350 CONEY ISLAND AVENUE","city":"BROOKLYN","state":"NY","zip":"11218"}},{"type":"Point","coordinates":[6092,3266],"properties":{"2001":0,"2011":331,"name":"18K566 - [BROOKLYN GENERATION SCHOOL]","street":"6565 FLATLANDS AVENUE","city":"BROOKLYN","state":"NY","zip":"11236"}},{"type":"Point","coordinates":[6092,3266],"properties":{"2001":0,"2011":382,"name":"18K567 - [BROOKLYN THEATRE ARTS HIGH SCH]","street":"6565 FLATLANDS AVENUE","city":"BROOKLYN","state":"NY","zip":"11236"}},{"type":"Point","coordinates":[6092,3266],"properties":{"2001":0,"2011":320,"name":"18K576 - [VICTORY COLLEGIATE HIGH SCHOOL]","street":"6565 FLATLANDS AVENUE","city":"BROOKLYN","state":"NY","zip":"11236"}},{"type":"Point","coordinates":[6092,3266],"properties":{"2001":0,"2011":217,"name":"18K578 - [BROOKLYN BRIDGE ACADEMY]","street":"6565 FLATLANDS AVENUE","city":"BROOKLYN","state":"NY","zip":"11236"}},{"type":"Point","coordinates":[6092,3266],"properties":{"2001":0,"2011":274,"name":"18K637 - [ACADEMY FOR CONSERVATION AND T]","street":"6565 FLATLANDS AVENUE","city":"BROOKLYN","state":"NY","zip":"11236"}},{"type":"Point","coordinates":[6092,3266],"properties":{"2001":723,"2011":0,"name":"22K585 - [BROOKLYN NIGHT SCHOOL]","street":"6565 Flatlands Ave","city":"Brooklyn","state":"NY","zip":"11236"}},{"type":"Point","coordinates":[5448,3273],"properties":{"2001":3612,"2011":3842,"name":"22K405 - [MIDWOOD HIGH SCHOOL]","street":"2839 BEDFORD AVENUE","city":"BROOKLYN","state":"NY","zip":"11210"}},{"type":"Point","coordinates":[2044,3306],"properties":{"2001":2489,"2011":2151,"name":"31R445 - [PORT RICHMOND HIGH SCHOOL]","street":"85 ST JOSEPHS AVENUE","city":"STATEN ISLAND","state":"NY","zip":"10302"}},{"type":"Point","coordinates":[4175,3363],"properties":{"2001":1161,"2011":1276,"name":"20K485 - [HS OF TELECOMM ARTS AND TECH]","street":"350 67 STREET","city":"BROOKLYN","state":"NY","zip":"11220"}},{"type":"Point","coordinates":[6423,3476],"properties":{"2001":2370,"2011":0,"name":"18K500 - [CANARSIE HIGH SCHOOL]","street":"1600 ROCKAWAY PARKWAY","city":"BROOKLYN","state":"NY","zip":"11236"}},{"type":"Point","coordinates":[6423,3476],"properties":{"2001":0,"2011":310,"name":"18K617 - [HIGH SCHOOL FOR INNOVATION IN]","street":"1600 ROCKAWAY PARKWAY","city":"BROOKLYN","state":"NY","zip":"11236"}},{"type":"Point","coordinates":[6423,3476],"properties":{"2001":0,"2011":460,"name":"18K633 - [HIGH SCHOOL FOR MEDICAL PROFES]","street":"1600 ROCKAWAY PARKWAY","city":"BROOKLYN","state":"NY","zip":"11236"}},{"type":"Point","coordinates":[6423,3476],"properties":{"2001":0,"2011":305,"name":"18K642 - [URBAN ACTION ACADEMY]","street":"1600 ROCKAWAY PARKWAY","city":"BROOKLYN","state":"NY","zip":"11236"}},{"type":"Point","coordinates":[4731,3495],"properties":{"2001":0,"2011":213,"name":"15K529 - [WEST BROOKLYN COMMUNITY HIGH S]","street":"1053 41ST STREET","city":"BROOKLYN","state":"NY","zip":"11219"}},{"type":"Point","coordinates":[3184,3497],"properties":{"2001":677,"2011":675,"name":"31R600 - [RALPH MCKEE HIGH SCHOOL]","street":"290 ST MARKS PLACE","city":"STATEN ISLAND","state":"NY","zip":"10301"}},{"type":"Point","coordinates":[3139,3542],"properties":{"2001":2472,"2011":2552,"name":"31R450 - [CURTIS HIGH SCHOOL]","street":"105 HAMILTON AVENUE","city":"STATEN ISLAND","state":"NY","zip":"10301"}},{"type":"Point","coordinates":[6423,3561],"properties":{"2001":0,"2011":203,"name":"18K635 - [OLYMPUS ACADEMY]","street":"755 EAST  100 STREET","city":"BROOKLYN","state":"NY","zip":"11236"}},{"type":"Point","coordinates":[6545,3602],"properties":{"2001":0,"2011":203,"name":"18K673 - [EAST BROOKLYN COMMUNITY HIGH S]","street":"9517 KINGS HIGHWAY","city":"BROOKLYN","state":"NY","zip":"11212"}},{"type":"Point","coordinates":[5998,3635],"properties":{"2001":0,"2011":382,"name":"18K563 - [IT TAKES A VILLAGE ACADEMY]","street":"5800 TILDEN AVENUE","city":"BROOKLYN","state":"NY","zip":"11203"}},{"type":"Point","coordinates":[5998,3635],"properties":{"2001":0,"2011":294,"name":"18K569 - [KURT HAHN EXPEDITIONARY LEARNI]","street":"5800 TILDEN AVENUE","city":"BROOKLYN","state":"NY","zip":"11203"}},{"type":"Point","coordinates":[5998,3635],"properties":{"2001":0,"2011":299,"name":"18K629 - [CULTURAL ACADEMY FOR THE ARTS]","street":"5800 TILDEN AVENUE","city":"BROOKLYN","state":"NY","zip":"11203"}},{"type":"Point","coordinates":[5347,3659],"properties":{"2001":0,"2011":319,"name":"17K408 - [ACADEMY OF HOSPITALITY AND TOU]","street":"911 FLATBUSH AVENUE","city":"BROOKLYN","state":"NY","zip":"11226"}},{"type":"Point","coordinates":[5347,3659],"properties":{"2001":783,"2011":0,"name":"17K459 - [ERASMUS SCIENCE AND MATH]","street":"911 Flatbush Avenue","city":"Brooklyn","state":"NY","zip":"11226"}},{"type":"Point","coordinates":[5347,3659],"properties":{"2001":856,"2011":0,"name":"17K469 - [ERASMUS ACADEMY OF HUMANITIES]","street":"911 Flatbush Ave","city":"Brooklyn","state":"NY","zip":"11226"}},{"type":"Point","coordinates":[5347,3659],"properties":{"2001":979,"2011":0,"name":"17K479 - [ERASMUS ACADEMY OF BUS/TECH]","street":"911 Flatbush Ave","city":"Brooklyn","state":"NY","zip":"11226"}},{"type":"Point","coordinates":[5347,3659],"properties":{"2001":0,"2011":385,"name":"17K537 - [HIGH SCHOOL FOR YOUTH AND COMM]","street":"911 FLATBUSH AVENUE","city":"BROOKLYN","state":"NY","zip":"11226"}},{"type":"Point","coordinates":[5347,3659],"properties":{"2001":0,"2011":422,"name":"17K539 - [HIGH SCHOOL FOR SERVICE & LEAR]","street":"911 FLATBUSH AVENUE","city":"BROOKLYN","state":"NY","zip":"11226"}},{"type":"Point","coordinates":[5347,3659],"properties":{"2001":0,"2011":0,"name":"17K543 - [SCIENCE,TECHNOLOGY AND RESEARC]","street":"911 FLATBUSH AVENUE","city":"BROOKLYN","state":"NY","zip":"11226"}},{"type":"Point","coordinates":[4506,3805],"properties":{"2001":0,"2011":988,"name":"15K667 - [SUNSET PARK HIGH SCHOOL]","street":"153 35TH STREET","city":"BROOKLYN","state":"NY","zip":"11232"}},{"type":"Point","coordinates":[6274,3805],"properties":{"2001":0,"2011":205,"name":"23K643 - [BROOKLYN DEMOCRACY ACADEMY]","street":"985 ROCKAWAY AVENUE","city":"BROOKLYN","state":"NY","zip":"11212"}},{"type":"Point","coordinates":[6274,3805],"properties":{"2001":0,"2011":181,"name":"23K647 - [METROPOLITAN DIPLOMA PLUS HIGH]","street":"985 ROCKAWAY AVENUE","city":"BROOKLYN","state":"NY","zip":"11212"}},{"type":"Point","coordinates":[5876,3869],"properties":{"2001":0,"2011":293,"name":"18K589 - [ARTS & MEDIA PREPARATORY ACADE]","street":"905 WINTHROP STREET","city":"BROOKLYN","state":"NY","zip":"11203"}},{"type":"Point","coordinates":[5611,3876],"properties":{"2001":2311,"2011":0,"name":"17K470 - [GEORGE W. WINGATE HIGH SCHOOL]","street":"600 Kingston Avenue","city":"Brooklyn","state":"NY","zip":"11203"}},{"type":"Point","coordinates":[5611,3876],"properties":{"2001":0,"2011":390,"name":"17K544 - [INTERNATIONAL ARTS BUSINESS HS]","street":"600 KINGSTON AVENUE","city":"BROOKLYN","state":"NY","zip":"11203"}},{"type":"Point","coordinates":[5611,3876],"properties":{"2001":0,"2011":417,"name":"17K546 - [HS PUBLIC SERVICE;HEROES OF T.]","street":"600 KINGSTON AVENUE","city":"BROOKLYN","state":"NY","zip":"11203"}},{"type":"Point","coordinates":[6189,4043],"properties":{"2001":0,"2011":365,"name":"23K514 - [FREDERICK DOUGLASS ACADEMY VII]","street":"226 BRISTOL STREET","city":"BROOKLYN","state":"NY","zip":"11212"}},{"type":"Point","coordinates":[5966,4062],"properties":{"2001":0,"2011":223,"name":"17K568 - [BROWNSVILLE ACADEMY HIGH SCHOO]","street":"1150 EAST NEW YORK AVENUE","city":"BROOKLYN","state":"NY","zip":"11212"}},{"type":"Point","coordinates":[5485,4079],"properties":{"2001":789,"2011":0,"name":"17K590 - [MEDGAR EVERS PREPARATORY SCHOO]","street":"1186 CARROLL STREET","city":"BROOKLYN","state":"NY","zip":"11225"}},{"type":"Point","coordinates":[6491,4088],"properties":{"2001":1606,"2011":0,"name":"19K435 - [THOMAS JEFFERSON HIGH SCHOOL]","street":"400 Pennsylvania Ave","city":"Brooklyn","state":"NY","zip":"11207"}},{"type":"Point","coordinates":[6491,4088],"properties":{"2001":0,"2011":381,"name":"19K502 - [FDNY HIGH SCHOOL FOR FIRE AND]","street":"400 PENNSYLVANIA AVENUE","city":"BROOKLYN","state":"NY","zip":"11207"}},{"type":"Point","coordinates":[6491,4088],"properties":{"2001":0,"2011":401,"name":"19K504 - [HIGH SCHOOL FOR CIVIL RIGHTS]","street":"400 PENNSYLVANIA AVENUE","city":"BROOKLYN","state":"NY","zip":"11207"}},{"type":"Point","coordinates":[6491,4088],"properties":{"2001":0,"2011":453,"name":"19K507 - [THE PERFORMING ARTS AND TECHNO]","street":"400 PENNSYLVANIA AVENUE","city":"BROOKLYN","state":"NY","zip":"11207"}},{"type":"Point","coordinates":[6491,4088],"properties":{"2001":0,"2011":380,"name":"19K510 - [WORLD ACADEMY FOR TOTAL COMMUN]","street":"400 PENNSYLVANIA AVENUE","city":"BROOKLYN","state":"NY","zip":"11207"}},{"type":"Point","coordinates":[8975,4105],"properties":{"2001":0,"2011":441,"name":"29Q248 - [QUEENS PREPARATORY ACADEMY]","street":"143-10 SPRINGFIELD BOULEVARD","city":"QUEENS","state":"NY","zip":"11413"}},{"type":"Point","coordinates":[8975,4105],"properties":{"2001":0,"2011":443,"name":"29Q265 - [EXCELSIOR PREPARATORY HIGH SCH]","street":"143-10 SPRINGFIELD BOULEVARD","city":"QUEENS","state":"NY","zip":"11413"}},{"type":"Point","coordinates":[8975,4105],"properties":{"2001":0,"2011":474,"name":"29Q272 - [GEORGE WASHINGTON CARVER HIGH]","street":"143-10 SPRINGFIELD BOULEVARD","city":"QUEENS","state":"NY","zip":"11413"}},{"type":"Point","coordinates":[8975,4105],"properties":{"2001":1692,"2011":0,"name":"29Q420 - [SPRINGFIELD GARDENS H.S.]","street":"143-10 Sprngfld Blvd","city":"Springfield Gardens","state":"NY","zip":"11413"}},{"type":"Point","coordinates":[5390,4129],"properties":{"2001":197,"2011":199,"name":"17K489 - [W.E.B. DU BOIS ACADEMIC HS]","street":"402 EASTERN PARKWAY","city":"BROOKLYN","state":"NY","zip":"11225"}},{"type":"Point","coordinates":[5282,4129],"properties":{"2001":1861,"2011":1608,"name":"17K600 - [CLARA BARTON HIGH SCHOOL]","street":"901 CLASSON AVENUE","city":"BROOKLYN","state":"NY","zip":"11225"}},{"type":"Point","coordinates":[4974,4134],"properties":{"2001":0,"2011":107,"name":"15K684 - [MILLENNIUM BROOKLYN HS]","street":"237 7 AVENUE","city":"BROOKLYN","state":"NY","zip":"11215"}},{"type":"Point","coordinates":[5307,4141],"properties":{"2001":1878,"2011":0,"name":"17K440 - [PROSPECT HEIGHTS HIGH SCHOOL]","street":"883 Classon Avenue","city":"Brooklyn","state":"NY","zip":"11225"}},{"type":"Point","coordinates":[5307,4141],"properties":{"2001":0,"2011":401,"name":"17K524 - [THE INTERNATIONAL HIGH SCHOOL]","street":"883 CLASSON AVENUE","city":"BROOKLYN","state":"NY","zip":"11225"}},{"type":"Point","coordinates":[5307,4141],"properties":{"2001":0,"2011":343,"name":"17K528 - [HIGH SCHOOL FOR GLOBAL CITIZEN]","street":"883 CLASSON AVENUE","city":"BROOKLYN","state":"NY","zip":"11225"}},{"type":"Point","coordinates":[5307,4141],"properties":{"2001":0,"2011":471,"name":"17K547 - [BKLYN. ACAD. FOR SCI. & ENV.]","street":"883 CLASSON AVENUE","city":"BROOKLYN","state":"NY","zip":"11225"}},{"type":"Point","coordinates":[5307,4141],"properties":{"2001":0,"2011":412,"name":"17K548 - [BKLYN. HS FOR MUSIC & THEATER]","street":"883 CLASSON AVENUE","city":"BROOKLYN","state":"NY","zip":"11225"}},{"type":"Point","coordinates":[6860,4162],"properties":{"2001":0,"2011":311,"name":"19K683 - [THE SCHOOL FOR CLASSICS: AN AC]","street":"370 FOUNTAIN AVENUE","city":"BROOKLYN","state":"NY","zip":"11208"}},{"type":"Point","coordinates":[7389,4188],"properties":{"2001":0,"2011":578,"name":"27Q308 - [ROBERT H. GODDARD HIGH SCHOOL]","street":"138-30 LAFAYETTE STREET","city":"QUEENS","state":"NY","zip":"11417"}},{"type":"Point","coordinates":[6468,4238],"properties":{"2001":1370,"2011":590,"name":"19K660 - [WILLIAM H. MAXWELL HIGH SCHOOL]","street":"145 PENNSYLVANIA AVENUE","city":"BROOKLYN","state":"NY","zip":"11207"}},{"type":"Point","coordinates":[8511,4238],"properties":{"2001":1721,"2011":1029,"name":"27Q400 - [AUGUST MARTIN HIGH SCHOOL]","street":"156-10 BAISLEY BOULEVARD","city":"QUEENS","state":"NY","zip":"11434"}},{"type":"Point","coordinates":[5687,4243],"properties":{"2001":0,"2011":138,"name":"17K751 - [ACADEMY FOR HEALTH CAREERS]","street":"150 ALBANY AVENUE","city":"BROOKLYN","state":"NY","zip":"11213"}},{"type":"Point","coordinates":[5687,4243],"properties":{"2001":0,"2011":0,"name":"19K751 - [ACADEMY FOR HEALTH CAREERS]","street":"150 ALBANY AVENUE","city":"BROOKLYN","state":"NY","zip":"11213"}},{"type":"Point","coordinates":[5698,4286],"properties":{"2001":0,"2011":104,"name":"17K122 - [PATHWAYS IN TECHNOLOGY EARLY C]","street":"150 ALBANY AVENUE","city":"BROOKLYN","state":"NY","zip":"11213"}},{"type":"Point","coordinates":[5698,4286],"properties":{"2001":1299,"2011":326,"name":"17K625 - [PAUL ROBESON HIGH SCHOOL]","street":"150 ALBANY AVENUE","city":"BROOKLYN","state":"NY","zip":"11213"}},{"type":"Point","coordinates":[6324,4325],"properties":{"2001":309,"2011":0,"name":"23K645 - [EBC HS FOR PUBLIC SAFETY & LAW]","street":"1495 HERKIMER STREET","city":"BROOKLYN","state":"NY","zip":"11233"}},{"type":"Point","coordinates":[6324,4325],"properties":{"2001":0,"2011":275,"name":"23K646 - [ASPIRATIONS DIPLOMA PLUS HIGH]","street":"1495 HERKIMER STREET","city":"BROOKLYN","state":"NY","zip":"11233"}},{"type":"Point","coordinates":[4344,4336],"properties":{"2001":0,"2011":149,"name":"15K698 - [SOUTH BROOKLYN COMMUNITY HS]","street":"173 CONOVER STREET","city":"BROOKLYN","state":"NY","zip":"11231"}},{"type":"Point","coordinates":[7521,4339],"properties":{"2001":3662,"2011":3386,"name":"27Q480 - [JOHN ADAMS HIGH SCHOOL]","street":"101-01 ROCKAWAY BOULEVARD","city":"QUEENS","state":"NY","zip":"11417"}},{"type":"Point","coordinates":[6830,4343],"properties":{"2001":1449,"2011":1317,"name":"19K615 - [TRANSIT TECH HIGH SCHOOL]","street":"1 WELLS STREET","city":"BROOKLYN","state":"NY","zip":"11208"}},{"type":"Point","coordinates":[5286,4350],"properties":{"2001":617,"2011":731,"name":"13K499 - [ACORN COMMUNITY HIGH SCHOOL]","street":"561 GRAND AVENUE","city":"BROOKLYN","state":"NY","zip":"11238"}},{"type":"Point","coordinates":[5835,4367],"properties":{"2001":3273,"2011":1631,"name":"16K455 - [BOYS AND GIRLS HIGH SCHOOL]","street":"1700 FULTON STREET","city":"BROOKLYN","state":"NY","zip":"11213"}},{"type":"Point","coordinates":[6000,4393],"properties":{"2001":0,"2011":294,"name":"16K594 - [GOTHAM PROFESSIONAL ARTS ACADE]","street":"265 RALPH AVENUE","city":"BROOKLYN","state":"NY","zip":"11233"}},{"type":"Point","coordinates":[4955,4467],"properties":{"2001":297,"2011":678,"name":"15K656 - [BROOKLYN HS OF THE ARTS]","street":"345 DEAN STREET","city":"BROOKLYN","state":"NY","zip":"11217"}},{"type":"Point","coordinates":[4769,4496],"properties":{"2001":870,"2011":663,"name":"15K519 - [COBBLE HILL SCHOOL]","street":"347 BALTIC STREET","city":"BROOKLYN","state":"NY","zip":"11201"}},{"type":"Point","coordinates":[5550,4505],"properties":{"2001":0,"2011":184,"name":"13K553 - [BROOKLYN ACADEMY HIGH SCHOOL]","street":"832 MARCY AVENUE","city":"BROOKLYN","state":"NY","zip":"11216"}},{"type":"Point","coordinates":[5550,4505],"properties":{"2001":301,"2011":152,"name":"13K575 - [BEDFORD STUYVESANT PREPARATORY]","street":"832 MARCY AVENUE","city":"BROOKLYN","state":"NY","zip":"11216"}},{"type":"Point","coordinates":[5424,4513],"properties":{"2001":0,"2011":367,"name":"13K595 - [BEDFORD ACADEMY H.S.]","street":"1119 BEDFORD AVENUE","city":"BROOKLYN","state":"NY","zip":"11216"}},{"type":"Point","coordinates":[8486,4529],"properties":{"2001":0,"2011":536,"name":"28Q690 - [HS FOR LAW ENFORCE & PUB. SAFE]","street":"116-25 GUY R BREWER BOULEVARD","city":"QUEENS","state":"NY","zip":"11434"}},{"type":"Point","coordinates":[4958,4544],"properties":{"2001":343,"2011":186,"name":"15K530 - [METROPOLITAN CORPORATE ACADEMY]","street":"362 SCHERMERHORN STREET","city":"BROOKLYN","state":"NY","zip":"11217"}},{"type":"Point","coordinates":[6029,4584],"properties":{"2001":352,"2011":405,"name":"16K498 - [ACORN HIGH SCHOOL FOR SOCIAL J]","street":"1396 BROADWAY","city":"BROOKLYN","state":"NY","zip":"11221"}},{"type":"Point","coordinates":[5025,4596],"properties":{"2001":4090,"2011":5332,"name":"13K430 - [BROOKLYN TECHNICAL HIGH SCHOOL]","street":"29 FT GREENE PLACE","city":"BROOKLYN","state":"NY","zip":"11217"}},{"type":"Point","coordinates":[7453,4603],"properties":{"2001":0,"2011":924,"name":"27Q650 - [THE HIGH SCHOOL FOR CONSTRUCTI]","street":"94-06 104TH STREET","city":"QUEENS","state":"NY","zip":"11416"}},{"type":"Point","coordinates":[7467,4613],"properties":{"2001":0,"2011":0,"name":"27Q279 - [CYPRESS HILLS COLLEGIATE PREPA]","street":"94-02 104th St","city":"Ozone Park","state":"NY","zip":"11416"}},{"type":"Point","coordinates":[4791,4623],"properties":{"2001":349,"2011":100,"name":"15K520 - [PACIFIC HIGH SCHOOL]","street":"112 SCHERMERHORN STREET","city":"BROOKLYN","state":"NY","zip":"11201"}},{"type":"Point","coordinates":[4793,4625],"properties":{"2001":0,"2011":81,"name":"15K423 - [BROOKLYN FRONTIERS HIGH SCHOOL]","street":"112 SCHERMERHORN STREET","city":"BROOKLYN","state":"NY","zip":"11201"}},{"type":"Point","coordinates":[5818,4656],"properties":{"2001":0,"2011":159,"name":"16K688 - [THE BROOKLYN ACADEMY OF GLOBAL]","street":"125 STUYVESANT AVENUE","city":"BROOKLYN","state":"NY","zip":"11221"}},{"type":"Point","coordinates":[6959,4677],"properties":{"2001":0,"2011":0,"name":"14K583 - [MULTICULTURAL HIGH SCHOOL]","street":"999 JAMAICA AVENUE","city":"BROOKLYN","state":"NY","zip":"11208"}},{"type":"Point","coordinates":[6959,4677],"properties":{"2001":3218,"2011":112,"name":"19K420 - [FRANKLIN K. LANE HIGH SCHOOL]","street":"999 JAMAICA AVENUE","city":"BROOKLYN","state":"NY","zip":"11208"}},{"type":"Point","coordinates":[6959,4677],"properties":{"2001":0,"2011":406,"name":"19K583 - [MULTICULTURAL HIGH SCHOOL]","street":"999 JAMAICA AVENUE","city":"BROOKLYN","state":"NY","zip":"11208"}},{"type":"Point","coordinates":[6959,4677],"properties":{"2001":0,"2011":404,"name":"19K618 - [ACADEMY OF INNOVATIVE TECHNOLO]","street":"999 JAMAICA AVENUE","city":"BROOKLYN","state":"NY","zip":"11208"}},{"type":"Point","coordinates":[6959,4677],"properties":{"2001":0,"2011":397,"name":"19K639 - [BROOKLYN LAB SCHOOL]","street":"999 JAMAICA AVENUE","city":"BROOKLYN","state":"NY","zip":"11208"}},{"type":"Point","coordinates":[6959,4677],"properties":{"2001":0,"2011":437,"name":"19K659 - [CYPRESS HILLS COLLEGIATE PREPA]","street":"999 JAMAICA AVENUE","city":"BROOKLYN","state":"NY","zip":"11208"}},{"type":"Point","coordinates":[5345,4682],"properties":{"2001":0,"2011":462,"name":"13K412 - [BROOKLYN COMMUNITY HIGH SCHOOL]","street":"300 WILLOUGHBY AVENUE","city":"BROOKLYN","state":"NY","zip":"11205"}},{"type":"Point","coordinates":[5345,4682],"properties":{"2001":0,"2011":212,"name":"13K616 - [BROOKLYN HIGH SCHOOL FOR LEADE]","street":"300 WILLOUGHBY AVENUE","city":"BROOKLYN","state":"NY","zip":"11205"}},{"type":"Point","coordinates":[5874,4730],"properties":{"2001":548,"2011":606,"name":"32K545 - [EBC HS FOR PUBLIC SERV (BUSHWI]","street":"1155 DEKALB AVENUE","city":"BROOKLYN","state":"NY","zip":"11221"}},{"type":"Point","coordinates":[4811,4732],"properties":{"2001":0,"2011":450,"name":"13K483 - [THE URBAN ASSEMBLY SCHOOL FOR]","street":"283 ADAMS STREET","city":"BROOKLYN","state":"NY","zip":"11201"}},{"type":"Point","coordinates":[7597,4744],"properties":{"2001":3060,"2011":2585,"name":"27Q475 - [RICHMOND HILL HIGH SCHOOL]","street":"89-30 114 STREET","city":"QUEENS","state":"NY","zip":"11418"}},{"type":"Point","coordinates":[4863,4751],"properties":{"2001":1159,"2011":927,"name":"13K605 - [GEORGE WESTINGHOUSE_H.S.]","street":"105 JOHNSON STREET","city":"BROOKLYN","state":"NY","zip":"11201"}},{"type":"Point","coordinates":[4863,4751],"properties":{"2001":0,"2011":335,"name":"13K674 - [CITY POLYTECHNIC HIGH SCHOOL O]","street":"105 JOHNSON STREET","city":"BROOKLYN","state":"NY","zip":"11201"}},{"type":"Point","coordinates":[5907,4751],"properties":{"2001":0,"2011":462,"name":"32K556 - [BUSHWICK LEADER'S HS ACAD. EX.]","street":"797 BUSHWICK AVENUE","city":"BROOKLYN","state":"NY","zip":"11221"}},{"type":"Point","coordinates":[5156,4753],"properties":{"2001":0,"2011":895,"name":"13K670 - [BENJAMIN BANNEKER ACADEMY]","street":"71-77 CLINTON AVENUE","city":"BROOKLYN","state":"NY","zip":"11205"}},{"type":"Point","coordinates":[6130,4753],"properties":{"2001":0,"2011":382,"name":"32K564 - [BUSHWICK COMMUNITY HIGH SCHOOL]","street":"231 PALMETTO STREET","city":"BROOKLYN","state":"NY","zip":"11221"}},{"type":"Point","coordinates":[5034,4775],"properties":{"2001":0,"2011":0,"name":"13K265 - [DR. SUSAN S. MCKINNEY SECONDAR]","street":"101 PARK AVENUE","city":"BROOKLYN","state":"NY","zip":"11205"}},{"type":"Point","coordinates":[6205,4789],"properties":{"2001":0,"2011":43,"name":"32K168 - [BROOKLYN SCHOOL FOR MATH AND R]","street":"400 IRVING AVENUE","city":"BROOKLYN","state":"NY","zip":"11237"}},{"type":"Point","coordinates":[6205,4789],"properties":{"2001":0,"2011":362,"name":"32K403 - [ACADEMY FOR ENVIRONMENTAL LEAD]","street":"400 IRVING AVENUE","city":"BROOKLYN","state":"NY","zip":"11237"}},{"type":"Point","coordinates":[6205,4789],"properties":{"2001":1681,"2011":0,"name":"32K480 - [BUSHWICK HIGH SCHOOL]","street":"400 Irving Avenue","city":"Brooklyn","state":"NY","zip":"11237"}},{"type":"Point","coordinates":[6205,4789],"properties":{"2001":0,"2011":434,"name":"32K549 - [BUSHWICK HS FOR SOCIAL JUSTICE]","street":"400 IRVING AVENUE","city":"BROOKLYN","state":"NY","zip":"11237"}},{"type":"Point","coordinates":[6205,4789],"properties":{"2001":0,"2011":0,"name":"32K551 - [THE HARBOR H.S.]","street":"400 Irving Ave","city":"Brooklyn","state":"NY","zip":"11237"}},{"type":"Point","coordinates":[6205,4789],"properties":{"2001":0,"2011":398,"name":"32K552 - [THE ACAD. URBAN PLANNING HS]","street":"400 IRVING AVENUE","city":"BROOKLYN","state":"NY","zip":"11237"}},{"type":"Point","coordinates":[5561,4792],"properties":{"2001":0,"2011":141,"name":"14K322 - [FOUNDATIONS ACADEMY]","street":"70 TOMPKINS AVENUE","city":"BROOKLYN","state":"NY","zip":"11206"}},{"type":"Point","coordinates":[5561,4792],"properties":{"2001":0,"2011":0,"name":"16K322 - [FOUNDATIONS ACADEMY]","street":"70 TOMPKINS AVENUE","city":"BROOKLYN","state":"NY","zip":"11206"}},{"type":"Point","coordinates":[4872,4802],"properties":{"2001":0,"2011":431,"name":"13K350 - [URBAN ASSEMBLY SCHOOL OF MUSIC]","street":"49 FLATBUSH AVENUE EXTENSION","city":"BROOKLYN","state":"NY","zip":"11201"}},{"type":"Point","coordinates":[4872,4802],"properties":{"2001":739,"2011":517,"name":"13K419 - [SCIENCE SKILLS CTR.]","street":"49 FLATBUSH AVENUE EXTENSION","city":"BROOKLYN","state":"NY","zip":"11201"}},{"type":"Point","coordinates":[4872,4802],"properties":{"2001":311,"2011":367,"name":"13K439 - [BROOKLYN INTERNATIONAL HS]","street":"49 FLATBUSH AVENUE EXTENSION","city":"BROOKLYN","state":"NY","zip":"11201"}},{"type":"Point","coordinates":[4843,4823],"properties":{"2001":173,"2011":218,"name":"13K509 - [FREEDOM ACADEMY HIGH SCHOOL]","street":"116 NASSAU STREET","city":"BROOKLYN","state":"NY","zip":"11201"}},{"type":"Point","coordinates":[9166,4832],"properties":{"2001":472,"2011":412,"name":"29Q492 - [MATH, SCIENCE RESEARCH AND TEC]","street":"207- 01 116TH  AVENUE","city":"QUEENS","state":"NY","zip":"11411"}},{"type":"Point","coordinates":[9166,4832],"properties":{"2001":560,"2011":454,"name":"29Q494 - [LAW, GOVT & COMMUNITY SERVICE]","street":"207- 01 116TH  AVENUE","city":"QUEENS","state":"NY","zip":"11411"}},{"type":"Point","coordinates":[9166,4832],"properties":{"2001":555,"2011":353,"name":"29Q496 - [BUS, COMP APP & ENTREPREN]","street":"207- 01 116TH  AVENUE","city":"QUEENS","state":"NY","zip":"11411"}},{"type":"Point","coordinates":[9166,4832],"properties":{"2001":586,"2011":481,"name":"29Q498 - [HUMANITIES AND THE ARTS MAGNET]","street":"207- 01 116TH  AVENUE","city":"QUEENS","state":"NY","zip":"11411"}},{"type":"Point","coordinates":[8230,4882],"properties":{"2001":0,"2011":418,"name":"28Q687 - [QUEENS HS FOR SCI AT YORK COLG]","street":"94-50 159 STREET","city":"QUEENS","state":"NY","zip":"11433"}},{"type":"Point","coordinates":[4389,4889],"properties":{"2001":0,"2011":430,"name":"02M551 - [THE URBAN ASSEMBLY NEW YORK HA]","street":"10 SOUTH STREET, SLIP 7","city":"NEW YORK","state":"NY","zip":"10004"}},{"type":"Point","coordinates":[4391,4970],"properties":{"2001":0,"2011":626,"name":"02M418 - [TRIBECA HIGH SCHOOL]","street":"75 BROAD STREET","city":"MANHATTAN","state":"NY","zip":"10004"}},{"type":"Point","coordinates":[5701,4980],"properties":{"2001":0,"2011":468,"name":"14K449 - [BROOKLYN LATIN]","street":"325 BUSHWICK AVENUE","city":"BROOKLYN","state":"NY","zip":"11206"}},{"type":"Point","coordinates":[4370,4989],"properties":{"2001":0,"2011":378,"name":"02M316 - [THE URBAN ASSEMBLY SCHOOL OF B]","street":"26 BROADWAY","city":"NEW YORK","state":"NY","zip":"10004"}},{"type":"Point","coordinates":[5397,4999],"properties":{"2001":153,"2011":218,"name":"14K685 - [EL PUENTE ACADEMY FOR PEACE]","street":"250 HOOPER STREET","city":"BROOKLYN","state":"NY","zip":"11211"}},{"type":"Point","coordinates":[4373,5013],"properties":{"2001":0,"2011":175,"name":"02M427 - [MANHATTAN ACADEMY FOR ARTS   L]","street":"111 EAST  33 STREET","city":"MANHATTAN","state":"NY","zip":"10016"}},{"type":"Point","coordinates":[8208,5056],"properties":{"2001":0,"2011":251,"name":"28Q338 - [QUEENS SATELLITE HIGH SCHOOL F]","street":"162-02 HILLSIDE AVENUE","city":"QUEENS","state":"NY","zip":"11432"}},{"type":"Point","coordinates":[7195,5070],"properties":{"2001":0,"2011":663,"name":"28Q686 - [QUEENS METROPOLITAN HIGH SCHOO]","street":"91-30 METROPOLITAN AVENUE","city":"QUEENS","state":"NY","zip":"11375"}},{"type":"Point","coordinates":[4380,5075],"properties":{"2001":592,"2011":607,"name":"02M425 - [HS FOR LEADERSHIP & PUBLIC SER]","street":"90 TRINITY PLACE","city":"MANHATTAN","state":"NY","zip":"10006"}},{"type":"Point","coordinates":[4380,5075],"properties":{"2001":636,"2011":809,"name":"02M489 - [H. S. OF ECONOMICS & FINANCE]","street":"100 TRINITY PLACE","city":"MANHATTAN","state":"NY","zip":"10006"}},{"type":"Point","coordinates":[5613,5109],"properties":{"2001":0,"2011":392,"name":"14K454 - [GREEN SCHOOL: AN ACADEMY FOR E]","street":"223 GRAHAM AVENUE","city":"BROOKLYN","state":"NY","zip":"11206"}},{"type":"Point","coordinates":[4589,5123],"properties":{"2001":2790,"2011":2073,"name":"02M520 - [MURRY BERGTRAUM HS FOR BUS CAR]","street":"411 PEARL STREET","city":"MANHATTAN","state":"NY","zip":"10038"}},{"type":"Point","coordinates":[5322,5137],"properties":{"2001":0,"2011":400,"name":"14K404 - [ACADEMY FOR YOUNG WRITERS]","street":"1065 ELTON STREET","city":"BROOKLYN","state":"NY","zip":"11208"}},{"type":"Point","coordinates":[6234,5144],"properties":{"2001":3157,"2011":2069,"name":"24Q485 - [GROVER CLEVELAND HIGH SCHOOL]","street":"21-27 HIMROD STREET","city":"QUEENS","state":"NY","zip":"11385"}},{"type":"Point","coordinates":[8723,5144],"properties":{"2001":0,"2011":147,"name":"29Q326 - [CAMBRIA HEIGHTS ACADEMY]","street":"188-04 91st Avenue","city":"Hollis","state":"NY","zip":"11423"}},{"type":"Point","coordinates":[5691,5147],"properties":{"2001":601,"2011":1068,"name":"14K474 - [PROGRESS HIGH SCHOOL]","street":"850 GRAND STREET","city":"BROOKLYN","state":"NY","zip":"11211"}},{"type":"Point","coordinates":[5691,5147],"properties":{"2001":574,"2011":759,"name":"14K477 - [HIGH SCHOOL OF LEGAL STUDIES]","street":"850 GRAND STREET","city":"BROOKLYN","state":"NY","zip":"11211"}},{"type":"Point","coordinates":[5691,5147],"properties":{"2001":560,"2011":976,"name":"14K478 - [HS OF ENTERPRISE, BUSINESS & T]","street":"850 GRAND STREET","city":"BROOKLYN","state":"NY","zip":"11211"}},{"type":"Point","coordinates":[4886,5156],"properties":{"2001":274,"2011":394,"name":"01M448 - [UNIVERSITY NEIGHBORHOOD HS]","street":"200 MONROE STREET","city":"MANHATTAN","state":"NY","zip":"10002"}},{"type":"Point","coordinates":[8313,5159],"properties":{"2001":3007,"2011":3103,"name":"28Q505 - [HILLCREST HIGH SCHOOL]","street":"160-05 HIGHLAND AVENUE","city":"QUEENS","state":"NY","zip":"11432"}},{"type":"Point","coordinates":[8223,5206],"properties":{"2001":0,"2011":200,"name":"28Q325 - [HILLSIDE ARTS   LETTERS ACADEM]","street":"167-01 GOTHIC DRIVE","city":"JAMAICA","state":"NY","zip":"11432"}},{"type":"Point","coordinates":[8223,5206],"properties":{"2001":0,"2011":177,"name":"28Q328 - [HIGH SCHOOL FOR COMMUNITY LEAD]","street":"167-01 GOTHIC DRIVE","city":"JAMAICA","state":"NY","zip":"11432"}},{"type":"Point","coordinates":[8223,5206],"properties":{"2001":0,"2011":224,"name":"28Q350 - [JAMAICA GATEWAY TO THE SCIENCE]","street":"167-01 GOTHIC DRIVE","city":"JAMAICA","state":"NY","zip":"11432"}},{"type":"Point","coordinates":[8223,5206],"properties":{"2001":2452,"2011":564,"name":"28Q470 - [JAMAICA HIGH SCHOOL]","street":"167-01 GOTHIC DRIVE","city":"JAMAICA","state":"NY","zip":"11432"}},{"type":"Point","coordinates":[5413,5223],"properties":{"2001":0,"2011":0,"name":"13K488 - [BROOKLYN PREPARATORY HIGH SCHO]","street":"257 NORTH  6 STREET","city":"BROOKLYN","state":"NY","zip":"11211"}},{"type":"Point","coordinates":[5413,5223],"properties":{"2001":0,"2011":400,"name":"14K488 - [BROOKLYN PREPARATORY HIGH SCHO]","street":"257 NORTH  6 STREET","city":"BROOKLYN","state":"NY","zip":"11211"}},{"type":"Point","coordinates":[5413,5223],"properties":{"2001":0,"2011":500,"name":"14K558 - [THE WILLIAMSBURG HIGH SCHOOL F]","street":"257 NORTH  6 STREET","city":"BROOKLYN","state":"NY","zip":"11211"}},{"type":"Point","coordinates":[5413,5223],"properties":{"2001":0,"2011":577,"name":"14K561 - [WILLIAMSBURG PREPARATORY SCHOO]","street":"257 NORTH  6 STREET","city":"BROOKLYN","state":"NY","zip":"11211"}},{"type":"Point","coordinates":[5413,5223],"properties":{"2001":1391,"2011":0,"name":"14K640 - [HARRY VAN ARSDALE HIGH SCHOOL]","street":"257 N 6th St","city":"Brooklyn","state":"NY","zip":"11211"}},{"type":"Point","coordinates":[8205,5244],"properties":{"2001":2230,"2011":2252,"name":"28Q620 - [THOMAS A. EDISON HIGH SCHOOL]","street":"165-65 84 AVENUE","city":"QUEENS","state":"NY","zip":"11432"}},{"type":"Point","coordinates":[4713,5254],"properties":{"2001":0,"2011":414,"name":"02M298 - [PACE HIGH SCHOOL]","street":"100 HESTER STREET","city":"MANHATTAN","state":"NY","zip":"10002"}},{"type":"Point","coordinates":[4713,5254],"properties":{"2001":0,"2011":250,"name":"02M394 - [EMMA LAZARUS HIGH SCHOOL]","street":"100 HESTER STREET","city":"MANHATTAN","state":"NY","zip":"10002"}},{"type":"Point","coordinates":[4787,5275],"properties":{"2001":0,"2011":0,"name":"01M545 - [DUAL LANG.& ASIAN STUDIES HS]","street":"350 GRAND STREET","city":"MANHATTAN","state":"NY","zip":"10002"}},{"type":"Point","coordinates":[4787,5275],"properties":{"2001":0,"2011":343,"name":"02M294 - [HIGH SCHOOL FOR HISTORY AND CO]","street":"350 GRAND STREET","city":"MANHATTAN","state":"NY","zip":"10002"}},{"type":"Point","coordinates":[4787,5275],"properties":{"2001":0,"2011":312,"name":"02M305 - [THE URBAN ASSEMBLY ACADEMY OF]","street":"350 GRAND STREET","city":"MANHATTAN","state":"NY","zip":"10002"}},{"type":"Point","coordinates":[4787,5275],"properties":{"2001":0,"2011":336,"name":"02M308 - [LOWER MANHATTAN ARTS ACADEMY]","street":"350 GRAND STREET","city":"MANHATTAN","state":"NY","zip":"10002"}},{"type":"Point","coordinates":[4785,5275],"properties":{"2001":1905,"2011":0,"name":"02M445 - [SEWARD PARK HIGH SCHOOL]","street":"350 Grand Street","city":"New York","state":"NY","zip":"10002"}},{"type":"Point","coordinates":[4787,5275],"properties":{"2001":0,"2011":423,"name":"02M543 - [NEW DESIGN HIGH SCHOOL]","street":"350 GRAND STREET","city":"MANHATTAN","state":"NY","zip":"10002"}},{"type":"Point","coordinates":[4787,5275],"properties":{"2001":0,"2011":353,"name":"02M545 - [HIGH SCHOOL FOR DUAL LANGUAGE]","street":"350 GRAND STREET","city":"MANHATTAN","state":"NY","zip":"10002"}},{"type":"Point","coordinates":[4350,5285],"properties":{"2001":3042,"2011":3297,"name":"02M475 - [STUYVESANT HIGH SCHOOL]","street":"345 CHAMBERS STREET","city":"MANHATTAN","state":"NY","zip":"10282"}},{"type":"Point","coordinates":[5034,5297],"properties":{"2001":251,"2011":617,"name":"01M696 - [BARD HS EARLY COLLEGE]","street":"525 EAST HOUSTON STREET","city":"MANHATTAN","state":"NY","zip":"10002"}},{"type":"Point","coordinates":[4859,5352],"properties":{"2001":0,"2011":367,"name":"01M509 - [MARTA VALLE HIGH SCHOOL]","street":"145 STANTON STREET","city":"MANHATTAN","state":"NY","zip":"10002"}},{"type":"Point","coordinates":[4859,5352],"properties":{"2001":544,"2011":562,"name":"01M515 - [LOWER EAST SIDE PREPARATORY HI]","street":"145 STANTON STREET","city":"MANHATTAN","state":"NY","zip":"10002"}},{"type":"Point","coordinates":[7857,5352],"properties":{"2001":0,"2011":198,"name":"25Q792 - [NORTH QUEENS COMMUNITY HIGH SC]","street":"141-25 77TH ROAD","city":"QUEENS","state":"NY","zip":"11367"}},{"type":"Point","coordinates":[5440,5392],"properties":{"2001":770,"2011":723,"name":"14K610 - [AUTOMOTIVE HIGH SCHOOL]","street":"50 BEDFORD AVENUE","city":"BROOKLYN","state":"NY","zip":"11222"}},{"type":"Point","coordinates":[5440,5392],"properties":{"2001":0,"2011":173,"name":"14K632 - [FRANCES PERKINS ACADEMY]","street":"50 BEDFORD AVENUE","city":"BROOKLYN","state":"NY","zip":"11222"}},{"type":"Point","coordinates":[4769,5397],"properties":{"2001":0,"2011":224,"name":"01M458 - [FORSYTH SATELLITE ACADEMY]","street":"198 FORSYTH STREET","city":"MANHATTAN","state":"NY","zip":"10002"}},{"type":"Point","coordinates":[4769,5397],"properties":{"2001":150,"2011":218,"name":"01M650 - [CASCADES HIGH SCHOOL]","street":"198 FORSYTH STREET","city":"MANHATTAN","state":"NY","zip":"10002"}},{"type":"Point","coordinates":[4512,5433],"properties":{"2001":182,"2011":237,"name":"02M500 - [UNITY HIGH SCHOOL]","street":"111 EAST  33 STREET","city":"MANHATTAN","state":"NY","zip":"10016"}},{"type":"Point","coordinates":[4515,5445],"properties":{"2001":0,"2011":433,"name":"02M376 - [NYCISCHOOL]","street":"131 AVENUE OF THE AMERICAS","city":"MANHATTAN","state":"NY","zip":"10013"}},{"type":"Point","coordinates":[4515,5445],"properties":{"2001":988,"2011":466,"name":"02M615 - [CHELSEA HIGH SCHOOL]","street":"131 AVENUE OF THE AMERICAS","city":"MANHATTAN","state":"NY","zip":"10013"}},{"type":"Point","coordinates":[8007,5464],"properties":{"2001":0,"2011":721,"name":"25Q670 - [R F KENNEDY COLLABORATIVE H S]","street":"75-40 PARSONS BOULEVARD","city":"QUEENS","state":"NY","zip":"11366"}},{"type":"Point","coordinates":[4490,5552],"properties":{"2001":798,"2011":605,"name":"02M560 - [HIGH SCHOOL M560 - CITY AS SCH]","street":"16 CLARKSON STREET","city":"MANHATTAN","state":"NY","zip":"10014"}},{"type":"Point","coordinates":[6628,5559],"properties":{"2001":0,"2011":248,"name":"24Q585 - [MASPETH HIGH SCHOOL]","street":"54-40 74TH STREET","city":"QUEENS","state":"NY","zip":"11373"}},{"type":"Point","coordinates":[7377,5564],"properties":{"2001":3186,"2011":3834,"name":"28Q440 - [FOREST HILLS HIGH SCHOOL]","street":"67-01 110 STREET","city":"QUEENS","state":"NY","zip":"11375"}},{"type":"Point","coordinates":[4740,5576],"properties":{"2001":0,"2011":68,"name":"02M586 - [HARVEY MILK SCHOOL]","street":"2-10 ASTOR PLACE","city":"MANHATTAN","state":"NY","zip":"10003"}},{"type":"Point","coordinates":[4910,5633],"properties":{"2001":348,"2011":0,"name":"02M407 - [INSTITUTE FOR SECONDARY EDUCAT]","street":"345 EAST  15TH STREET","city":"MANHATTAN","state":"NY","zip":"10003"}},{"type":"Point","coordinates":[4910,5633],"properties":{"2001":1388,"2011":1768,"name":"02M420 - [HS FOR HEALTH PROF & HUMAN SER]","street":"345 EAST  15TH STREET","city":"MANHATTAN","state":"NY","zip":"10003"}},{"type":"Point","coordinates":[4881,5640],"properties":{"2001":736,"2011":807,"name":"02M575 - [MANHATTAN COMPREHENSIVE NIGHT]","street":"240 2 AVENUE","city":"MANHATTAN","state":"NY","zip":"10003"}},{"type":"Point","coordinates":[9301,5666],"properties":{"2001":2783,"2011":2390,"name":"26Q435 - [MARTIN VAN BUREN HIGH SCHOOL]","street":"230-17 HILLSIDE AVENUE","city":"QUEENS","state":"NY","zip":"11427"}},{"type":"Point","coordinates":[7816,5696],"properties":{"2001":1070,"2011":1140,"name":"25Q525 - [TOWNSEND HARRIS HIGH SCHOOL]","street":"149-11 MELBOURNE AVENUE","city":"QUEENS","state":"NY","zip":"11367"}},{"type":"Point","coordinates":[4818,5705],"properties":{"2001":0,"2011":495,"name":"02M374 - [GRAMERCY ARTS HIGH SCHOOL]","street":"40 IRVING PLACE","city":"MANHATTAN","state":"NY","zip":"10003"}},{"type":"Point","coordinates":[4818,5705],"properties":{"2001":0,"2011":244,"name":"02M399 - [THE HIGH SCHOOL FOR LANGUAGE A]","street":"40 IRVING PLACE","city":"NEW YORK","state":"NY","zip":"10003"}},{"type":"Point","coordinates":[4818,5705],"properties":{"2001":0,"2011":176,"name":"02M438 - [INTERNATIONAL HIGH SCHOOL AT U]","street":"40 IRVING PLACE","city":"NEW YORK","state":"NY","zip":"10003"}},{"type":"Point","coordinates":[4818,5705],"properties":{"2001":2710,"2011":1032,"name":"02M460 - [WASHINGTON IRVING HIGH SCHOOL]","street":"40 IRVING PLACE","city":"NEW YORK","state":"NY","zip":"10003"}},{"type":"Point","coordinates":[4677,5728],"properties":{"2001":337,"2011":294,"name":"02M429 - [LEGACY SCHOOL FOR INTEGRATED S]","street":"34 WEST  14 STREET","city":"MANHATTAN","state":"NY","zip":"10011"}},{"type":"Point","coordinates":[7771,5752],"properties":{"2001":3542,"2011":3660,"name":"25Q425 - [JOHN BOWNE HIGH SCHOOL]","street":"63-25 MAIN STREET","city":"QUEENS","state":"NY","zip":"11367"}},{"type":"Point","coordinates":[7258,5757],"properties":{"2001":778,"2011":828,"name":"24Q550 - [HIGH SCHOOL FOR ARTS & BUSINES]","street":"105-25 HORACE HARDING EXPY N","city":"QUEENS","state":"NY","zip":"11368"}},{"type":"Point","coordinates":[4791,5776],"properties":{"2001":0,"2011":0,"name":"02M442 - [BALLET TECH / NYC PUBLIC SCHOO]","street":"890 BROADWAY","city":"MANHATTAN","state":"NY","zip":"10003"}},{"type":"Point","coordinates":[8291,5829],"properties":{"2001":3870,"2011":4152,"name":"26Q430 - [FRANCIS LEWIS HIGH SCHOOL]","street":"58-20 UTOPIA PARKWAY","city":"QUEENS","state":"NY","zip":"11365"}},{"type":"Point","coordinates":[6868,5833],"properties":{"2001":4259,"2011":2516,"name":"24Q455 - [NEWTOWN HIGH SCHOOL]","street":"48-01 90 STREET","city":"QUEENS","state":"NY","zip":"11373"}},{"type":"Point","coordinates":[4852,5857],"properties":{"2001":0,"2011":432,"name":"02M411 - [BARUCH COLLEGE CAMPUS HIGH SCH]","street":"55 EAST  25 STREET","city":"MANHATTAN","state":"NY","zip":"10010"}},{"type":"Point","coordinates":[4596,5857],"properties":{"2001":563,"2011":397,"name":"02M550 - [LIBERTY HIGH SCHOOL ACADEMY FO]","street":"250 WEST  18 STREET","city":"MANHATTAN","state":"NY","zip":"10011"}},{"type":"Point","coordinates":[4737,5862],"properties":{"2001":433,"2011":429,"name":"02M439 - [MANHATTAN VILLAGE ACADEMY]","street":"43 WEST  22 STREET","city":"MANHATTAN","state":"NY","zip":"10010"}},{"type":"Point","coordinates":[5745,5867],"properties":{"2001":454,"2011":0,"name":"24Q560 - [ROBERT F. WAGNER JR.]","street":"47-07 30 PLACE","city":"QUEENS","state":"NY","zip":"11101"}},{"type":"Point","coordinates":[5889,5867],"properties":{"2001":1132,"2011":1368,"name":"24Q600 - [QUEENS VOCATIONAL & TECHNICAL]","street":"37-02 47 AVENUE","city":"QUEENS","state":"NY","zip":"11101"}},{"type":"Point","coordinates":[4554,5869],"properties":{"2001":0,"2011":579,"name":"02M412 - [NYC LAB SCHOOL FOR COLLABORATI]","street":"333 WEST  17 STREET","city":"MANHATTAN","state":"NY","zip":"10011"}},{"type":"Point","coordinates":[4554,5869],"properties":{"2001":0,"2011":436,"name":"02M414 - [NYC MUSEUM SCHOOL]","street":"333 WEST  17 STREET","city":"MANHATTAN","state":"NY","zip":"10011"}},{"type":"Point","coordinates":[6913,5891],"properties":{"2001":0,"2011":449,"name":"24Q293 - [CIVIC LEADERSHIP ACADEMY]","street":"45-10 94TH STREET","city":"QUEENS","state":"NY","zip":"11373"}},{"type":"Point","coordinates":[6913,5891],"properties":{"2001":0,"2011":366,"name":"24Q296 - [PAN AMERICAN INTERNATIONAL HIG]","street":"45-10 94TH STREET","city":"QUEENS","state":"NY","zip":"11373"}},{"type":"Point","coordinates":[6913,5891],"properties":{"2001":0,"2011":248,"name":"24Q744 - [VOYAGES PREPARATORY]","street":"45-10 94TH STREET","city":"QUEENS","state":"NY","zip":"11373"}},{"type":"Point","coordinates":[4542,5895],"properties":{"2001":0,"2011":248,"name":"02M313 - [THE JAMES BALDWIN SCHOOL: A SC]","street":"351 WEST  18 STREET","city":"MANHATTAN","state":"NY","zip":"10011"}},{"type":"Point","coordinates":[4542,5895],"properties":{"2001":0,"2011":332,"name":"02M392 - [MANHATTAN BUSINESS ACADEMY]","street":"351 WEST  18 STREET","city":"MANHATTAN","state":"NY","zip":"10011"}},{"type":"Point","coordinates":[4542,5895],"properties":{"2001":380,"2011":421,"name":"02M419 - [LANDMARK HIGH SCHOOL]","street":"351 WEST  18 STREET","city":"MANHATTAN","state":"NY","zip":"10011"}},{"type":"Point","coordinates":[4542,5895],"properties":{"2001":0,"2011":226,"name":"02M437 - [HUDSON HIGH SCHOOL OF LEARNING]","street":"351 WEST  18 STREET","city":"MANHATTAN","state":"NY","zip":"10011"}},{"type":"Point","coordinates":[4542,5895],"properties":{"2001":2087,"2011":208,"name":"02M440 - [BAYARD RUSTIN HS FOR THE HUMAN]","street":"351 WEST  18 STREET","city":"MANHATTAN","state":"NY","zip":"10011"}},{"type":"Point","coordinates":[4542,5895],"properties":{"2001":184,"2011":192,"name":"02M605 - [HUMANITIES PREPARATORY ACADEMY]","street":"351 WEST  18 STREET","city":"MANHATTAN","state":"NY","zip":"10011"}},{"type":"Point","coordinates":[9481,5912],"properties":{"2001":0,"2011":1175,"name":"26Q566 - [H.S. OF TCHG., LIB. ARTS & SCI]","street":"74-20 COMMONWEALTH BLVD","city":"QUEENS","state":"NY","zip":"11426"}},{"type":"Point","coordinates":[5880,5914],"properties":{"2001":1884,"2011":2201,"name":"24Q610 - [AVIATION HIGH SCHOOL]","street":"45-30 36 STREET","city":"QUEENS","state":"NY","zip":"11101"}},{"type":"Point","coordinates":[5772,5926],"properties":{"2001":0,"2011":493,"name":"24Q530 - [INTERNATIONAL HIGH SCHOOL AT L]","street":"45-35 VAN DAM STREET","city":"QUEENS","state":"NY","zip":"11101"}},{"type":"Point","coordinates":[5772,5926],"properties":{"2001":463,"2011":0,"name":"30Q530 - [THE INTERNATIONAL HIGH SCHOOL]","street":"45-35 VAN DAM STREET","city":"QUEENS","state":"NY","zip":"11101"}},{"type":"Point","coordinates":[5737,5936],"properties":{"2001":0,"2011":420,"name":"24Q264 - [THE ACADEMY OF FINANCE AND ENT]","street":"30-20 THOMSON AVENUE","city":"QUEENS","state":"NY","zip":"11101"}},{"type":"Point","coordinates":[5737,5936],"properties":{"2001":0,"2011":388,"name":"24Q267 - [HIGH SCHOOL OF APPLIED COMMUNI]","street":"30-20 THOMSON AVENUE","city":"QUEENS","state":"NY","zip":"11101"}},{"type":"Point","coordinates":[5737,5936],"properties":{"2001":0,"2011":631,"name":"24Q299 - [BARD HIGH SCHOOL EARLY COLLEGE]","street":"30-20 THOMSON AVENUE","city":"QUEENS","state":"NY","zip":"11101"}},{"type":"Point","coordinates":[4667,5941],"properties":{"2001":1778,"2011":1599,"name":"02M600 - [FASHION INDUSTRIES HIGH SCHOOL]","street":"225 WEST  24 STREET","city":"MANHATTAN","state":"NY","zip":"10011"}},{"type":"Point","coordinates":[5800,5953],"properties":{"2001":0,"2011":497,"name":"24Q520 - [MIDDLE COLLEGE HIGH SCHOOL AT]","street":"45-35 VAN DAM STREET","city":"QUEENS","state":"NY","zip":"11101"}},{"type":"Point","coordinates":[5800,5953],"properties":{"2001":489,"2011":0,"name":"30Q520 - [MIDDLE COLLEGE HIGH SCHOOL]","street":"45-35 VAN DAM STREET","city":"QUEENS","state":"NY","zip":"11101"}},{"type":"Point","coordinates":[4928,5974],"properties":{"2001":0,"2011":214,"name":"02M432 - [MURRAY HILL ACADEMY]","street":"111 EAST  33 STREET","city":"NEW YORK","state":"NY","zip":"10016"}},{"type":"Point","coordinates":[4928,5974],"properties":{"2001":2193,"2011":1127,"name":"02M620 - [NORMAN THOMAS HIGH SCHOOL]","street":"111 EAST  33 STREET","city":"NEW YORK","state":"NY","zip":"10016"}},{"type":"Point","coordinates":[4773,5994],"properties":{"2001":828,"2011":248,"name":"02M570 - [SATELLITE ACADEMY HIGH SCHOOL]","street":"120 WEST  30 STREET","city":"MANHATTAN","state":"NY","zip":"10001"}},{"type":"Point","coordinates":[5570,6019],"properties":{"2001":0,"2011":917,"name":"30Q502 - [HS FOR INFORMATION TECHNOLOGY]","street":"21-16 44TH ROAD","city":"QUEENS","state":"NY","zip":"11101"}},{"type":"Point","coordinates":[5727,6084],"properties":{"2001":450,"2011":704,"name":"30Q575 - [ACADEMY OF AMERICAN STUDIES]","street":"28-04 41 AVENUE","city":"QUEENS","state":"NY","zip":"11101"}},{"type":"Point","coordinates":[5732,6086],"properties":{"2001":1078,"2011":932,"name":"30Q555 - [NEWCOMERS HIGH SCHOOL]","street":"28-01 41 AVENUE","city":"QUEENS","state":"NY","zip":"11101"}},{"type":"Point","coordinates":[8991,6096],"properties":{"2001":3974,"2011":3912,"name":"26Q415 - [BENJAMIN CARDOZO HIGH SCHOOL]","street":"57-00 223RD STREET","city":"QUEENS","state":"NY","zip":"11364"}},{"type":"Point","coordinates":[5919,6172],"properties":{"2001":0,"2011":0,"name":"30Q580 - [BACCALAUREATE SCHL GLOBAL EDUC]","street":"34-12 36 AVENUE","city":"QUEENS","state":"NY","zip":"11106"}},{"type":"Point","coordinates":[4875,6196],"properties":{"2001":207,"2011":217,"name":"02M531 - [PUBLIC SCHOOL REPERTORY COMPAN]","street":"123 WEST  43 STREET","city":"MANHATTAN","state":"NY","zip":"10036"}},{"type":"Point","coordinates":[5946,6210],"properties":{"2001":247,"2011":756,"name":"30Q501 - [FRANK SINATRA HIGH SCHOOL]","street":"35-12 35TH AVENUE","city":"QUEENS","state":"NY","zip":"11106"}},{"type":"Point","coordinates":[6198,6222],"properties":{"2001":3877,"2011":2945,"name":"30Q445 - [WILLIAM C. BRYANT HIGH SCHOOL]","street":"48-10 31 AVENUE","city":"QUEENS","state":"NY","zip":"11103"}},{"type":"Point","coordinates":[5817,6224],"properties":{"2001":0,"2011":419,"name":"30Q301 - [ACADEMY FOR CAREERS IN TELEVIS]","street":"36-41 28 STREET","city":"QUEENS","state":"NY","zip":"11106"}},{"type":"Point","coordinates":[4897,6241],"properties":{"2001":559,"2011":724,"name":"02M529 - [JACQUELINE KENNEDY ONASSIS HS]","street":"120 WEST  46 STREET","city":"MANHATTAN","state":"NY","zip":"10036"}},{"type":"Point","coordinates":[5219,6267],"properties":{"2001":1481,"2011":1344,"name":"02M630 - [HIGH SCHOOL OF ART & DESIGN]","street":"231-249 EAST 56 STREET","city":"MANHATTAN","state":"NY","zip":"10019"}},{"type":"Point","coordinates":[7877,6298],"properties":{"2001":0,"2011":422,"name":"25Q263 - [THE FLUSHING INTERNATIONAL HIG]","street":"144-80 BARCLAY AVENUE","city":"QUEENS","state":"NY","zip":"11355"}},{"type":"Point","coordinates":[4812,6327],"properties":{"2001":327,"2011":0,"name":"02M408 - [PROFESSIONAL PERFORMING ARTS H]","street":"328 WEST  48 STREET","city":"MANHATTAN","state":"NY","zip":"10036"}},{"type":"Point","coordinates":[4758,6377],"properties":{"2001":0,"2011":304,"name":"02M393 - [BUSINESS OF SPORTS SCHOOL]","street":"439 WEST 49TH STREET","city":"MANHATTAN","state":"NY","zip":"10019"}},{"type":"Point","coordinates":[4760,6377],"properties":{"2001":0,"2011":126,"name":"02M507 - [URBAN ASSEMBLY GATEWAY SCHOOL]","street":"439 WEST 49TH STREET","city":"MANHATTAN","state":"NY","zip":"10019"}},{"type":"Point","coordinates":[4758,6377],"properties":{"2001":2049,"2011":1433,"name":"02M625 - [GRAPHIC COMMUNICATION ARTS]","street":"439 WEST 49TH STREET","city":"MANHATTAN","state":"NY","zip":"10019"}},{"type":"Point","coordinates":[7717,6408],"properties":{"2001":2399,"2011":3113,"name":"25Q460 - [FLUSHING HIGH SCHOOL]","street":"35-01 UNION STREET","city":"QUEENS","state":"NY","zip":"11354"}},{"type":"Point","coordinates":[4724,6417],"properties":{"2001":0,"2011":433,"name":"02M288 - [FOOD AND FINANCE HIGH SCHOOL]","street":"525 WEST  50TH STREET","city":"MANHATTAN","state":"NY","zip":"10019"}},{"type":"Point","coordinates":[4724,6417],"properties":{"2001":0,"2011":419,"name":"02M296 - [HIGH SCHOOL OF HOSPITALITY MAN]","street":"525 WEST  50TH STREET","city":"MANHATTAN","state":"NY","zip":"10019"}},{"type":"Point","coordinates":[4724,6417],"properties":{"2001":0,"2011":431,"name":"02M300 - [URBAN ASSEMBLY SCHOOL OF DESIG]","street":"525 WEST  50TH STREET","city":"MANHATTAN","state":"NY","zip":"10019"}},{"type":"Point","coordinates":[4724,6417],"properties":{"2001":0,"2011":451,"name":"02M303 - [THE FACING HISTORY SCHOOL]","street":"525 WEST  50TH STREET","city":"MANHATTAN","state":"NY","zip":"10019"}},{"type":"Point","coordinates":[5322,6417],"properties":{"2001":408,"2011":444,"name":"02M449 - [VANGUARD HIGH SCHOOL]","street":"317 EAST  67 STREET","city":"MANHATTAN","state":"NY","zip":"10065"}},{"type":"Point","coordinates":[5322,6417],"properties":{"2001":313,"2011":325,"name":"02M459 - [MANHATTAN INTERNATIONAL HS]","street":"317 EAST  67 STREET","city":"MANHATTAN","state":"NY","zip":"10065"}},{"type":"Point","coordinates":[5322,6417],"properties":{"2001":413,"2011":491,"name":"02M519 - [TALENT UNLIMITED HIGH SCHOOL]","street":"317 EAST  67 STREET","city":"MANHATTAN","state":"NY","zip":"10065"}},{"type":"Point","coordinates":[4724,6417],"properties":{"2001":2062,"2011":0,"name":"02M535 - [PARK WEST HIGH SCHOOL]","street":"525 West 50th Street","city":"New York","state":"NY","zip":"10019"}},{"type":"Point","coordinates":[4724,6417],"properties":{"2001":0,"2011":541,"name":"02M542 - [MANHATTAN BRIDGES HIGH SCHOOL]","street":"525 WEST  50TH STREET","city":"MANHATTAN","state":"NY","zip":"10019"}},{"type":"Point","coordinates":[5322,6417],"properties":{"2001":108,"2011":157,"name":"02M565 - [URBAN ACADEMY]","street":"317 EAST  67 STREET","city":"MANHATTAN","state":"NY","zip":"10065"}},{"type":"Point","coordinates":[7690,6425],"properties":{"2001":0,"2011":404,"name":"25Q540 - [QUEENS ACADEMY HIGH SCHOOL]","street":"138-11 35 AVENUE","city":"QUEENS","state":"NY","zip":"11354"}},{"type":"Point","coordinates":[5806,6425],"properties":{"2001":3602,"2011":3386,"name":"30Q450 - [LONG ISLAND CITY HIGH SCHOOL]","street":"14-30 BROADWAY","city":"QUEENS","state":"NY","zip":"11106"}},{"type":"Point","coordinates":[4794,6482],"properties":{"2001":0,"2011":391,"name":"02M544 - [INDEPENDENCE HIGH SCHOOL]","street":"850 10TH AVENUE","city":"MANHATTAN","state":"NY","zip":"10019"}},{"type":"Point","coordinates":[4807,6484],"properties":{"2001":1425,"2011":1394,"name":"02M400 - [HS FOR ENVIRONMENTAL STUDIES]","street":"444 WEST 56 STREET","city":"NEW YORK","state":"NY","zip":"10019"}},{"type":"Point","coordinates":[5437,6534],"properties":{"2001":0,"2011":507,"name":"02M416 - [ELEANOR ROOSEVELT H.S.]","street":"411 EAST 76 STREET","city":"MANHATTAN","state":"NY","zip":"10021"}},{"type":"Point","coordinates":[8550,6570],"properties":{"2001":2794,"2011":3308,"name":"26Q495 - [BAYSIDE HIGH SCHOOL]","street":"32-24 CORPORAL KENNEDY STREET","city":"QUEENS","state":"NY","zip":"11361"}},{"type":"Point","coordinates":[4811,6587],"properties":{"2001":917,"2011":1162,"name":"03M479 - [BEACON SCHOOL]","street":"227-243 WEST 61ST STREET","city":"MANHATTAN","state":"NY","zip":"10023"}},{"type":"Point","coordinates":[4875,6644],"properties":{"2001":0,"2011":409,"name":"03M283 - [MANHATTAN THEATRE LAB HIGH SCH]","street":"122 AMSTERDAM AVENUE","city":"MANHATTAN","state":"NY","zip":"10023"}},{"type":"Point","coordinates":[4875,6644],"properties":{"2001":0,"2011":418,"name":"03M299 - [THE SCHOOL FOR ARTS, IMAGINATI]","street":"122 AMSTERDAM AVENUE","city":"MANHATTAN","state":"NY","zip":"10023"}},{"type":"Point","coordinates":[4875,6644],"properties":{"2001":0,"2011":366,"name":"03M307 - [THE URBAN ASSEMBLY SCHOOL FOR]","street":"122 AMSTERDAM AVENUE","city":"MANHATTAN","state":"NY","zip":"10023"}},{"type":"Point","coordinates":[4875,6644],"properties":{"2001":2258,"2011":0,"name":"03M490 - [MARTIN LUTHER KING, JR]","street":"122 Amsterdam Avenue","city":"New York","state":"NY","zip":"10023"}},{"type":"Point","coordinates":[4875,6644],"properties":{"2001":0,"2011":541,"name":"03M492 - [MLK LAW, ADVOCACY & COMM JUSTI]","street":"122 AMSTERDAM AVENUE","city":"MANHATTAN","state":"NY","zip":"10023"}},{"type":"Point","coordinates":[4875,6644],"properties":{"2001":0,"2011":603,"name":"03M494 - [MLK ARTS & TECHNOLOGY]","street":"122 AMSTERDAM AVENUE","city":"MANHATTAN","state":"NY","zip":"10023"}},{"type":"Point","coordinates":[4875,6644],"properties":{"2001":0,"2011":453,"name":"03M541 - [MAN./HUNTER COLLEGE HS FOR SCI]","street":"122 AMSTERDAM AVENUE","city":"MANHATTAN","state":"NY","zip":"10023"}},{"type":"Point","coordinates":[4895,6682],"properties":{"2001":2371,"2011":2605,"name":"03M485 - [FIORELLO H. LAGUARDIA HIGH SC]","street":"100 AMSTERDAM AVENUE","city":"MANHATTAN","state":"NY","zip":"10023"}},{"type":"Point","coordinates":[5548,6713],"properties":{"2001":666,"2011":610,"name":"02M580 - [HIGH SCHOOL OF TEACHING]","street":"26 BROADWAY","city":"MANHATTAN","state":"NY","zip":"10004"}},{"type":"Point","coordinates":[5574,6847],"properties":{"2001":418,"2011":0,"name":"02M655 - [LIFE SCIENCES SECONDARY SCHOOL]","street":"320 EAST  96 STREET","city":"MANHATTAN","state":"NY","zip":"10128"}},{"type":"Point","coordinates":[5642,6889],"properties":{"2001":285,"2011":0,"name":"04M635 - [ACADEMY OF ENVIRONMENTAL SCIEN]","street":"410 EAST 100 STREET","city":"MANHATTAN","state":"NY","zip":"10029"}},{"type":"Point","coordinates":[5057,6906],"properties":{"2001":0,"2011":283,"name":"03M402 - [THE URBAN ASSEMBLY SCHOOL FOR]","street":"145 WEST  84 STREET","city":"MANHATTAN","state":"NY","zip":"10024"}},{"type":"Point","coordinates":[5057,6906],"properties":{"2001":0,"2011":358,"name":"03M403 - [THE GLOBAL LEARNING COLLABORAT]","street":"145 WEST  84 STREET","city":"MANHATTAN","state":"NY","zip":"10024"}},{"type":"Point","coordinates":[5057,6906],"properties":{"2001":0,"2011":199,"name":"03M404 - [INNOVATION DIPLOMA PLUS]","street":"145 WEST  84 STREET","city":"MANHATTAN","state":"NY","zip":"10024"}},{"type":"Point","coordinates":[5057,6906],"properties":{"2001":0,"2011":219,"name":"03M417 - [FRANK MCCOURT HIGH SCHOOL]","street":"145 WEST  84 STREET","city":"MANHATTAN","state":"NY","zip":"10024"}},{"type":"Point","coordinates":[5057,6906],"properties":{"2001":2356,"2011":291,"name":"03M470 - [LOUIS D. BRANDEIS HIGH SCHOOL]","street":"145 WEST  84 STREET","city":"MANHATTAN","state":"NY","zip":"10024"}},{"type":"Point","coordinates":[5606,7013],"properties":{"2001":342,"2011":349,"name":"04M495 - [PARK EAST HIGH SCHOOL]","street":"230-34 EAST 105 STREET","city":"MANHATTAN","state":"NY","zip":"10029"}},{"type":"Point","coordinates":[5556,7054],"properties":{"2001":307,"2011":294,"name":"04M680 - [THE HERITAGE SCHOOL]","street":"1680 LEXINGTON AVENUE","city":"MANHATTAN","state":"NY","zip":"10029"}},{"type":"Point","coordinates":[5552,7073],"properties":{"2001":232,"2011":0,"name":"04M610 - [THE YOUNG WOMEN'S LEADERSHIP S]","street":"105 EAST 106 STREET","city":"MANHATTAN","state":"NY","zip":"10029"}},{"type":"Point","coordinates":[5514,7104],"properties":{"2001":353,"2011":445,"name":"04M555 - [CENTRAL PARK EAST SECONDARY]","street":"1573 MADISON AVENUE","city":"MANHATTAN","state":"NY","zip":"10029"}},{"type":"Point","coordinates":[5808,7106],"properties":{"2001":1604,"2011":1650,"name":"04M435 - [MANHATTAN CENTER FOR SCIENCE &]","street":"260 PLEASANT AVENUE","city":"MANHATTAN","state":"NY","zip":"10029"}},{"type":"Point","coordinates":[5196,7171],"properties":{"2001":715,"2011":564,"name":"03M505 - [EDWARD A.REYNOLDS WEST SIDE HI]","street":"140 WEST 102 STREET","city":"MANHATTAN","state":"NY","zip":"10025"}},{"type":"Point","coordinates":[5799,7223],"properties":{"2001":401,"2011":349,"name":"04M409 - [COALITION SCHOOL FOR SOCIAL CH]","street":"2351 1ST AVENUE","city":"MANHATTAN","state":"NY","zip":"10035"}},{"type":"Point","coordinates":[5419,7300],"properties":{"2001":394,"2011":0,"name":"03M415 - [WADLEIGH ARTS HIGH SCHOOL]","street":"215 WEST 114 STREET","city":"MANHATTAN","state":"NY","zip":"10026"}},{"type":"Point","coordinates":[5682,7433],"properties":{"2001":0,"2011":222,"name":"05M285 - [HARLEM RENAISSANCE HIGH SCHOOL]","street":"22 EAST 128 STREET","city":"MANHATTAN","state":"NY","zip":"10035"}},{"type":"Point","coordinates":[6079,7485],"properties":{"2001":0,"2011":393,"name":"07X334 - [INTERNATIONAL COMMUNITY HIGH S]","street":"345 BROOK AVENUE","city":"BRONX","state":"NY","zip":"10454"}},{"type":"Point","coordinates":[6079,7485],"properties":{"2001":0,"2011":0,"name":"08X334 - [INTERNATIONAL COMMUNITY HIGH S]","street":"345 BROOK AVENUE","city":"BRONX","state":"NY","zip":"10454"}},{"type":"Point","coordinates":[6277,7493],"properties":{"2001":1340,"2011":663,"name":"07X655 - [SAMUEL GOMPERS HIGH SCHOOL]","street":"455 SOUTHERN BLVD","city":"BRONX","state":"NY","zip":"10455"}},{"type":"Point","coordinates":[6231,7507],"properties":{"2001":259,"2011":311,"name":"07X520 - [FOREIGN LANGUAGE ACADEMY]","street":"470 JACKSON AVENUE","city":"BRONX","state":"NY","zip":"10455"}},{"type":"Point","coordinates":[5941,7564],"properties":{"2001":0,"2011":0,"name":"07X336 - [URBAN ASSEMBLY SCHOOL FOR THE]","street":"339 Morris Ave","city":"Bronx","state":"NY","zip":"10451"}},{"type":"Point","coordinates":[5941,7564],"properties":{"2001":0,"2011":0,"name":"07X551 - [BRONX ACADEMY OF LETTERS]","street":"339 MORRIS AVENUE","city":"BRONX","state":"NY","zip":"10451"}},{"type":"Point","coordinates":[7192,7603],"properties":{"2001":0,"2011":379,"name":"08X282 - [WOMEN S ACADEMY OF EXCELLENCE]","street":"456 WHITE PLAINS ROAD","city":"BRONX","state":"NY","zip":"10473"}},{"type":"Point","coordinates":[5409,7605],"properties":{"2001":0,"2011":374,"name":"05M369 - [URBAN ASSEMBLY SCHOOL FOR THE]","street":"509 WEST 129 STREET","city":"MANHATTAN","state":"NY","zip":"10027"}},{"type":"Point","coordinates":[5851,7619],"properties":{"2001":0,"2011":319,"name":"07X427 - [COMMUNITY HS FOR SOCIAL JUSTIC]","street":"350 GERARD AVENUE","city":"BRONX","state":"NY","zip":"10451"}},{"type":"Point","coordinates":[5851,7619],"properties":{"2001":0,"2011":587,"name":"07X670 - [HEALTH OPPORTUNITIES HS]","street":"350 GERARD AVENUE","city":"BRONX","state":"NY","zip":"10451"}},{"type":"Point","coordinates":[6191,7650],"properties":{"2001":0,"2011":124,"name":"07X321 - [CROTONA ACADEMY HIGH SCHOOL]","street":"639-55 ST. ANNS AVENUE","city":"BRONX","state":"NY","zip":"10455"}},{"type":"Point","coordinates":[5545,7659],"properties":{"2001":0,"2011":426,"name":"05M304 - [MOTT HALL HIGH SCHOOL]","street":"6 EDGECOMBE AVENUE","city":"MANHATTAN","state":"NY","zip":"10030"}},{"type":"Point","coordinates":[5545,7659],"properties":{"2001":345,"2011":524,"name":"05M685 - [BREAD & ROSES INTEGRATED ARTS]","street":"6 EDGECOMBE AVENUE","city":"MANHATTAN","state":"NY","zip":"10030"}},{"type":"Point","coordinates":[6434,7664],"properties":{"2001":0,"2011":333,"name":"08X332 - [HOLCOMBE L. RUCKER SCHOOL OF C]","street":"965 LONGWOOD AVENUE","city":"BRONX","state":"NY","zip":"10459"}},{"type":"Point","coordinates":[6434,7664],"properties":{"2001":215,"2011":451,"name":"08X530 - [BANANA KELLY HIGH SCHOOL]","street":"965 LONGWOOD AVENUE","city":"BRONX","state":"NY","zip":"10459"}},{"type":"Point","coordinates":[6434,7664],"properties":{"2001":456,"2011":0,"name":"08X686 - [NEW SCHOOL FOR ARTS & SCIENCES]","street":"965 Longwood Ave","city":"Bronx","state":"NY","zip":"10459"}},{"type":"Point","coordinates":[6196,7674],"properties":{"2001":992,"2011":0,"name":"07X470 - [SOUTH BRONX HIGH SCHOOL]","street":"701 St. Anns Avenue","city":"Bronx","state":"NY","zip":"10455"}},{"type":"Point","coordinates":[6191,7674],"properties":{"2001":0,"2011":363,"name":"07X473 - [MOTT HAVEN VILLAGE PREP HS]","street":"701 ST. ANNS AVENUE","city":"BRONX","state":"NY","zip":"10455"}},{"type":"Point","coordinates":[6191,7674],"properties":{"2001":411,"2011":465,"name":"07X495 - [UNIVERSITY HEIGHTS SECONDARY S]","street":"701 ST. ANNS AVENUE","city":"BRONX","state":"NY","zip":"10455"}},{"type":"Point","coordinates":[5901,7676],"properties":{"2001":377,"2011":0,"name":"07X500 - [LINCOLN ACADEMY/ HOSTOS]","street":"600 SAINT ANN'S AVENUE","city":"BRONX","state":"NY","zip":"10455"}},{"type":"Point","coordinates":[5487,7681],"properties":{"2001":1317,"2011":1285,"name":"06M540 - [A. PHILIP RANDOLPH CAMPUS HS]","street":"443 WEST 135 STREET","city":"MANHATTAN","state":"NY","zip":"10031"}},{"type":"Point","coordinates":[6038,7683],"properties":{"2001":0,"2011":153,"name":"07X381 - [BRONX HAVEN HIGH SCHOOL]","street":"333 EAST 151 STREET","city":"BRONX","state":"NY","zip":"10451"}},{"type":"Point","coordinates":[6038,7683],"properties":{"2001":0,"2011":138,"name":"07X522 - [BRONX DESIGN AND CONSTRUCTION]","street":"333 EAST 151 STREET","city":"BRONX","state":"NY","zip":"10451"}},{"type":"Point","coordinates":[6038,7683],"properties":{"2001":1319,"2011":738,"name":"07X600 - [ALFRED E. SMITH HIGH SCHOOL]","street":"333 EAST 151 STREET","city":"BRONX","state":"NY","zip":"10451"}},{"type":"Point","coordinates":[6294,7695],"properties":{"2001":0,"2011":198,"name":"07X379 - [JILL CHAIFETZ TRANSFER HIGH SC]","street":"778 FOREST AVENUE","city":"BRONX","state":"NY","zip":"10456"}},{"type":"Point","coordinates":[6729,7748],"properties":{"2001":0,"2011":363,"name":"08X519 - [THE FELISA RINCON DE GAUTIER I]","street":"1440 STORY AVENUE","city":"BRONX","state":"NY","zip":"10473"}},{"type":"Point","coordinates":[6729,7748],"properties":{"2001":0,"2011":129,"name":"08X537 - [BRONX ARENA HIGH SCHOOL]","street":"1440 STORY AVENUE","city":"BRONX","state":"NY","zip":"10473"}},{"type":"Point","coordinates":[6729,7748],"properties":{"2001":0,"2011":195,"name":"08X560 - [HIGH SCHOOL X560 - BRONX ACADE]","street":"1440 STORY AVENUE","city":"BRONX","state":"NY","zip":"10473"}},{"type":"Point","coordinates":[5521,7752],"properties":{"2001":0,"2011":406,"name":"05M692 - [HIGH SCHOOL FOR MATHEMATICS, S]","street":"240 CONVENT AVE","city":"NEW YORK","state":"NY","zip":"10031"}},{"type":"Point","coordinates":[6337,7767],"properties":{"2001":1608,"2011":717,"name":"08X650 - [JANE ADDAMS HIGH SCHOOL]","street":"900 TINTON AVENUE","city":"BRONX","state":"NY","zip":"10456"}},{"type":"Point","coordinates":[7192,7776],"properties":{"2001":0,"2011":478,"name":"08X295 - [GATEWAY SCHOOL FOR ENVIRONMENT]","street":"1980 LAFAYETTE AVENUE","city":"BRONX","state":"NY","zip":"10473"}},{"type":"Point","coordinates":[7192,7776],"properties":{"2001":0,"2011":359,"name":"08X305 - [PABLO NERUDA ACADEMY FOR ARCHI]","street":"1980 LAFAYETTE AVENUE","city":"BRONX","state":"NY","zip":"10473"}},{"type":"Point","coordinates":[7192,7776],"properties":{"2001":0,"2011":496,"name":"08X312 - [MILLENIUM ART ACADEMY]","street":"1980 LAFAYETTE AVENUE","city":"BRONX","state":"NY","zip":"10473"}},{"type":"Point","coordinates":[7192,7776],"properties":{"2001":0,"2011":200,"name":"08X377 - [BRONX COMMUNITY HIGH SCHOOL]","street":"1980 LAFAYETTE AVENUE","city":"BRONX","state":"NY","zip":"10473"}},{"type":"Point","coordinates":[7192,7776],"properties":{"2001":0,"2011":155,"name":"08X432 - [BRONX BRIDGES HIGH SCHOOL]","street":"1980 LAFAYETTE AVENUE","city":"BRONX","state":"NY","zip":"10473"}},{"type":"Point","coordinates":[7192,7776],"properties":{"2001":2727,"2011":0,"name":"08X450 - [ADLAI E. STEVENSON HIGH SCHOOL]","street":"1980 Lafayette Ave","city":"Bronx","state":"NY","zip":"10473"}},{"type":"Point","coordinates":[7192,7776],"properties":{"2001":0,"2011":305,"name":"08X452 - [THE BRONX GUILD HIGH SCHOOL]","street":"1980 LAFAYETTE AVENUE","city":"BRONX","state":"NY","zip":"10473"}},{"type":"Point","coordinates":[7192,7776],"properties":{"2001":0,"2011":191,"name":"08X540 - [HS FOR COMMUNITY RES. & LEARN]","street":"1980 LAFAYETTE AVENUE","city":"BRONX","state":"NY","zip":"10473"}},{"type":"Point","coordinates":[5973,7783],"properties":{"2001":0,"2011":502,"name":"07X527 - [BRONX LEADERSHIP ACADEMY II HI]","street":"730 CONCOURSE VILLAGE WEST","city":"BRONX","state":"NY","zip":"10451"}},{"type":"Point","coordinates":[5973,7783],"properties":{"2001":0,"2011":383,"name":"07X547 - [NEW EXPLORERS H.S.]","street":"730 CONCOURSE VILLAGE WEST","city":"BRONX","state":"NY","zip":"10451"}},{"type":"Point","coordinates":[5973,7783],"properties":{"2001":0,"2011":477,"name":"07X548 - [HS FOR CAREER IN SPORTS]","street":"730 CONCOURSE VILLAGE WEST","city":"BRONX","state":"NY","zip":"10451"}},{"type":"Point","coordinates":[6430,7795],"properties":{"2001":0,"2011":228,"name":"12X446 - [ARTURO A. SCHOMBURG SATELLITE]","street":"1010 REV. J. A. POLITE AVENUE","city":"BRONX","state":"NY","zip":"10459"}},{"type":"Point","coordinates":[6430,7795],"properties":{"2001":360,"2011":338,"name":"12X480 - [BRONX REGIONAL HIGH SCHOOL]","street":"1010 REV. J. A. POLITE AVENUE","city":"BRONX","state":"NY","zip":"10459"}},{"type":"Point","coordinates":[6389,7886],"properties":{"2001":0,"2011":244,"name":"12X479 - [BRONX CAREER AND COLLEGE PREPA]","street":"800 HOME STREET","city":"BRONX","state":"NY","zip":"10456"}},{"type":"Point","coordinates":[6065,7903],"properties":{"2001":207,"2011":0,"name":"09X505 - [BRONX SCH FOR LAW, GOVT, JUSTI]","street":"244 EAST 163 STREET","city":"BRONX","state":"NY","zip":"10451"}},{"type":"Point","coordinates":[6454,7905],"properties":{"2001":0,"2011":339,"name":"12X248 - [THE METROPOLITAN HIGH SCHOOL]","street":"1180 REV. J.A. POLITE AVE.","city":"BRONX","state":"NY","zip":"10459"}},{"type":"Point","coordinates":[6454,7905],"properties":{"2001":0,"2011":231,"name":"12X278 - [PEACE AND DIVERSITY ACADEMY]","street":"1180 REV. J.A. POLITE AVE.","city":"BRONX","state":"NY","zip":"10459"}},{"type":"Point","coordinates":[6326,7912],"properties":{"2001":0,"2011":450,"name":"09X297 - [MORRIS ACADEMY FOR COLLABORATI]","street":"1110 BOSTON ROAD","city":"BRONX","state":"NY","zip":"10456"}},{"type":"Point","coordinates":[6326,7912],"properties":{"2001":74,"2011":403,"name":"09X403 - [BRONX INTERNATIONAL HIGH SCHOO]","street":"1110 BOSTON ROAD","city":"BRONX","state":"NY","zip":"10456"}},{"type":"Point","coordinates":[6326,7912],"properties":{"2001":0,"2011":386,"name":"09X404 - [SCHOOL FOR EXCELLENCE]","street":"1110 BOSTON ROAD","city":"BRONX","state":"NY","zip":"10456"}},{"type":"Point","coordinates":[6326,7912],"properties":{"2001":0,"2011":323,"name":"09X543 - [HIGH SCHOOL FOR VIOLIN AND DAN]","street":"1110 BOSTON ROAD","city":"BRONX","state":"NY","zip":"10456"}},{"type":"Point","coordinates":[6326,7912],"properties":{"2001":1604,"2011":0,"name":"12X400 - [MORRIS HIGH SCHOOL]","street":"1110 Boston Road","city":"Bronx","state":"NY","zip":"10456"}},{"type":"Point","coordinates":[6657,7979],"properties":{"2001":387,"2011":477,"name":"12X682 - [FANNIE LOU HAMER HIGH SCHOOL]","street":"1021 JENNINGS STREET","city":"BRONX","state":"NY","zip":"10460"}},{"type":"Point","coordinates":[6779,7991],"properties":{"2001":0,"2011":406,"name":"12X388 - [PAN AMERICAN INTERNATIONAL HIG]","street":"1300 BOYNTON AVENUE","city":"BRONX","state":"NY","zip":"10472"}},{"type":"Point","coordinates":[6778,7991],"properties":{"2001":0,"2011":223,"name":"12X478 - [THE CINEMA SCHOOL]","street":"1551 EAST 172ND STREET","city":"BRONX","state":"NY","zip":"10472"}},{"type":"Point","coordinates":[6779,7991],"properties":{"2001":0,"2011":96,"name":"12X521 - [THE METROPOLITAN SOUNDVIEW HIG]","street":"1300 BOYNTON AVENUE","city":"BRONX","state":"NY","zip":"10472"}},{"type":"Point","coordinates":[6779,7991],"properties":{"2001":280,"2011":369,"name":"12X550 - [HIGH SCHOOL OF WORLD CULTURES]","street":"1300 BOYNTON AVENUE","city":"BRONX","state":"NY","zip":"10472"}},{"type":"Point","coordinates":[6779,7991],"properties":{"2001":369,"2011":0,"name":"12X680 - [BRONX COALITION COMM SCHL FOR]","street":"1300 BOYNTON AVENUE","city":"BRONX","state":"NY","zip":"10472"}},{"type":"Point","coordinates":[6779,7991],"properties":{"2001":478,"2011":249,"name":"12X690 - [MONROE ACADEMY BUSINESS & LAW]","street":"1300 BOYNTON AVENUE","city":"BRONX","state":"NY","zip":"10472"}},{"type":"Point","coordinates":[6779,7991],"properties":{"2001":382,"2011":466,"name":"12X692 - [MONROE ACADEMY VISUAL ARTS/DES]","street":"1300 BOYNTON AVENUE","city":"BRONX","state":"NY","zip":"10472"}},{"type":"Point","coordinates":[6357,8050],"properties":{"2001":0,"2011":444,"name":"09X260 - [BRONX CENTER FOR SCIENCE AND M]","street":"1363 FULTON AVENUE","city":"BRONX","state":"NY","zip":"10456"}},{"type":"Point","coordinates":[6560,8098],"properties":{"2001":0,"2011":0,"name":"11X262 - [THE BRONX HIGH SCHOOL OF PERFO]","street":"1619 BOSTON ROAD","city":"BRONX","state":"NY","zip":"10460"}},{"type":"Point","coordinates":[6560,8098],"properties":{"2001":0,"2011":362,"name":"12X251 - [EXPLORATIONS ACADEMY]","street":"1619 BOSTON ROAD","city":"BRONX","state":"NY","zip":"10460"}},{"type":"Point","coordinates":[6560,8098],"properties":{"2001":0,"2011":260,"name":"12X262 - [BRONX HIGH SCHOOL FOR PERFORMA]","street":"1619 BOSTON ROAD","city":"BRONX","state":"NY","zip":"10460"}},{"type":"Point","coordinates":[6560,8098],"properties":{"2001":0,"2011":71,"name":"12X511 - [BRONX ENVISION ACADEMY]","street":"1619 BOSTON ROAD","city":"BRONX","state":"NY","zip":"10460"}},{"type":"Point","coordinates":[5709,8151],"properties":{"2001":312,"2011":472,"name":"06M552 - [GREGORIO LUPERON PREPARATORY]","street":"501 WEST 165TH","city":"MANHATTAN","state":"NY","zip":"10032"}},{"type":"Point","coordinates":[7010,8153],"properties":{"2001":84,"2011":0,"name":"12X691 - [BRONX LITTLE SCHOOL]","street":"1827 ARCHER STREET","city":"BRONX","state":"NY","zip":"10460"}},{"type":"Point","coordinates":[6195,8182],"properties":{"2001":0,"2011":355,"name":"09X227 - [BRONX EXPEDITIONARY LEARNING H]","street":"240 EAST 172 STREET","city":"BRONX","state":"NY","zip":"10457"}},{"type":"Point","coordinates":[6195,8182],"properties":{"2001":0,"2011":141,"name":"09X239 - [THE URBAN ASSEMBLY ACADEMY FOR]","street":"240 EAST 172 STREET","city":"BRONX","state":"NY","zip":"10457"}},{"type":"Point","coordinates":[6195,8182],"properties":{"2001":0,"2011":349,"name":"09X329 - [DREAMYARD PREPARATORY SCHOOL]","street":"240 EAST 172 STREET","city":"BRONX","state":"NY","zip":"10457"}},{"type":"Point","coordinates":[6195,8182],"properties":{"2001":0,"2011":401,"name":"09X412 - [BRONX HIGH SCHOOL OF BUSINESS]","street":"240 EAST 172 STREET","city":"BRONX","state":"NY","zip":"10457"}},{"type":"Point","coordinates":[6195,8182],"properties":{"2001":0,"2011":0,"name":"09X413 - [BRONX HIGH SCHOOL FOR MEDICAL]","street":"240 EAST 172 STREET","city":"BRONX","state":"NY","zip":"10457"}},{"type":"Point","coordinates":[6195,8182],"properties":{"2001":0,"2011":382,"name":"09X414 - [JONATHAN LEVIN HIGH SCHOOL FOR]","street":"240 EAST 172 STREET","city":"BRONX","state":"NY","zip":"10457"}},{"type":"Point","coordinates":[6195,8182],"properties":{"2001":2016,"2011":0,"name":"10X410 - [WILLIAM H. TAFT HIGH SCHOOL]","street":"240 East 172nd Street","city":"Bronx","state":"NY","zip":"10457"}},{"type":"Point","coordinates":[6367,8186],"properties":{"2001":0,"2011":354,"name":"09X252 - [MOTT HALL BRONX HIGH SCHOOL]","street":"1595 BATHGATE AVENUE","city":"BRONX","state":"NY","zip":"10457"}},{"type":"Point","coordinates":[6367,8186],"properties":{"2001":0,"2011":365,"name":"09X263 - [VALIDUS PREPARATORY ACADEMY: A]","street":"1595 BATHGATE AVENUE","city":"BRONX","state":"NY","zip":"10457"}},{"type":"Point","coordinates":[7516,8198],"properties":{"2001":0,"2011":469,"name":"08X293 - [RENAISSANCE HIGH SCHOOL FOR MU]","street":"3000 EAST TREMONT AVENUE","city":"BRONX","state":"NY","zip":"10461"}},{"type":"Point","coordinates":[7516,8198],"properties":{"2001":3515,"2011":3593,"name":"08X405 - [HERBERT H. LEHMAN HIGH SCHOOL]","street":"3000 EAST TREMONT AVENUE","city":"BRONX","state":"NY","zip":"10461"}},{"type":"Point","coordinates":[6846,8236],"properties":{"2001":397,"2011":538,"name":"12X684 - [WINGS ACADEMY]","street":"1122 EAST 180 STREET","city":"BRONX","state":"NY","zip":"10460"}},{"type":"Point","coordinates":[6445,8248],"properties":{"2001":0,"2011":230,"name":"09X276 - [LEADERSHIP INSTITUTE]","street":"1701 FULTON AVENUE","city":"BRONX","state":"NY","zip":"10457"}},{"type":"Point","coordinates":[6342,8282],"properties":{"2001":557,"2011":705,"name":"09X525 - [BRONX LEADERSHIP ACADEMY]","street":"1710 WEBSTER AVENUE","city":"BRONX","state":"NY","zip":"10457"}},{"type":"Point","coordinates":[6450,8325],"properties":{"2001":0,"2011":0,"name":"09X231 - [EAGLE ACADEMY FOR YOUNG MEN]","street":"4143 THIRD AVENUE","city":"BRONX","state":"NY","zip":"10457"}},{"type":"Point","coordinates":[6513,8399],"properties":{"2001":0,"2011":213,"name":"10X319 - [PROVIDING URBAN LEARNERS SUCCE]","street":"560 EAST 179 STREET","city":"BRONX","state":"NY","zip":"10457"}},{"type":"Point","coordinates":[6110,8413],"properties":{"2001":0,"2011":336,"name":"09X365 - [ACADEMY FOR LANGUAGE AND TECHN]","street":"1700 MACOMBS ROAD","city":"BRONX","state":"NY","zip":"10453"}},{"type":"Point","coordinates":[7035,8477],"properties":{"2001":0,"2011":483,"name":"11X418 - [BRONX HS FOR THE VISUAL ARTS]","street":"2040 ANTIN PL","city":"BRONX","state":"NY","zip":"10462"}},{"type":"Point","coordinates":[5912,8580],"properties":{"2001":588,"2011":630,"name":"06M462 - [HS OF INTL BUSINESS & FINANCE]","street":"549 AUDUBON AVENUE","city":"MANHATTAN","state":"NY","zip":"10040"}},{"type":"Point","coordinates":[5912,8580],"properties":{"2001":470,"2011":572,"name":"06M463 - [HS OF MEDIA COMMUNICATIONS]","street":"549 AUDUBON AVENUE","city":"MANHATTAN","state":"NY","zip":"10040"}},{"type":"Point","coordinates":[5912,8580],"properties":{"2001":566,"2011":694,"name":"06M467 - [HS OF LAW & PUBLIC SERVICE]","street":"549 AUDUBON AVENUE","city":"MANHATTAN","state":"NY","zip":"10040"}},{"type":"Point","coordinates":[5912,8580],"properties":{"2001":541,"2011":679,"name":"06M468 - [HS FOR HEALTH CAREER & SCIENCE]","street":"549 AUDUBON AVENUE","city":"MANHATTAN","state":"NY","zip":"10040"}},{"type":"Point","coordinates":[6715,8580],"properties":{"2001":0,"2011":85,"name":"10X524 - [CROTONA INTERNATIONAL HIGH SCH]","street":"2474 CROTONA AVENUE","city":"BRONX","state":"NY","zip":"10458"}},{"type":"Point","coordinates":[6715,8580],"properties":{"2001":1364,"2011":1162,"name":"10X660 - [GRACE H. DODGE HIGH SCHOOL]","street":"2474 CROTONA AVENUE","city":"BRONX","state":"NY","zip":"10458"}},{"type":"Point","coordinates":[7105,8666],"properties":{"2001":0,"2011":543,"name":"11X288 - [COLUMBUS INSTITUTE FOR MATH AN]","street":"925 ASTOR AVENUE","city":"BRONX","state":"NY","zip":"10469"}},{"type":"Point","coordinates":[7105,8666],"properties":{"2001":0,"2011":498,"name":"11X299 - [ASTOR COLLEGIATE HIGH SCHOOL]","street":"925 ASTOR AVENUE","city":"BRONX","state":"NY","zip":"10469"}},{"type":"Point","coordinates":[7105,8666],"properties":{"2001":3267,"2011":727,"name":"11X415 - [CHRISTOPHER COLUMBUS HIGH SCHO]","street":"925 ASTOR AVENUE","city":"BRONX","state":"NY","zip":"10469"}},{"type":"Point","coordinates":[7105,8666],"properties":{"2001":0,"2011":95,"name":"11X508 - [BRONXDALE HIGH SCHOOL]","street":"925 ASTOR AVENUE","city":"BRONX","state":"NY","zip":"10469"}},{"type":"Point","coordinates":[7105,8666],"properties":{"2001":0,"2011":76,"name":"11X509 - [HIGH SCHOOL FOR LANGUAGE AND I]","street":"925 ASTOR AVENUE","city":"BRONX","state":"NY","zip":"10469"}},{"type":"Point","coordinates":[7105,8666],"properties":{"2001":0,"2011":270,"name":"11X541 - [GLOBAL ENTERPRISE H.S.]","street":"925 ASTOR AVENUE","city":"BRONX","state":"NY","zip":"10469"}},{"type":"Point","coordinates":[7105,8666],"properties":{"2001":0,"2011":507,"name":"11X542 - [PELHAM PREP. H.S.]","street":"925 ASTOR AVENUE","city":"BRONX","state":"NY","zip":"10469"}},{"type":"Point","coordinates":[6612,8676],"properties":{"2001":0,"2011":324,"name":"10X374 - [KNOWLEDGE AND POWER PREPARATOR]","street":"500 EAST FORDHAM ROAD","city":"BRONX","state":"NY","zip":"10458"}},{"type":"Point","coordinates":[6612,8676],"properties":{"2001":0,"2011":407,"name":"10X434 - [BELMONT PREPARATORY HS]","street":"500 EAST FORDHAM ROAD","city":"BRONX","state":"NY","zip":"10458"}},{"type":"Point","coordinates":[6612,8676],"properties":{"2001":3328,"2011":0,"name":"10X435 - [THEODORE ROOSEVELT HIGH SCHOOL]","street":"500 East Fordham Road","city":"Bronx","state":"NY","zip":"10458"}},{"type":"Point","coordinates":[6612,8676],"properties":{"2001":0,"2011":387,"name":"10X437 - [FORDHAM HS FOR THE ARTS]","street":"500 EAST FORDHAM ROAD","city":"BRONX","state":"NY","zip":"10458"}},{"type":"Point","coordinates":[6612,8676],"properties":{"2001":0,"2011":451,"name":"10X438 - [FORDHAM LEADERSHIP ACADEMY]","street":"500 EAST FORDHAM ROAD","city":"BRONX","state":"NY","zip":"10458"}},{"type":"Point","coordinates":[6612,8676],"properties":{"2001":0,"2011":432,"name":"10X439 - [BRONX HS OF LAW & COMM SERVICE]","street":"500 EAST FORDHAM ROAD","city":"BRONX","state":"NY","zip":"10458"}},{"type":"Point","coordinates":[5949,8823],"properties":{"2001":0,"2011":178,"name":"06M423 - [HIGH SCHOOL FOR EXCELLENCE AND]","street":"650 ACADEMY STREET","city":"MANHATTAN","state":"NY","zip":"10034"}},{"type":"Point","coordinates":[6432,8925],"properties":{"2001":0,"2011":497,"name":"10X268 - [KINGSBRIDGE INTERNATIONAL HIGH]","street":"2780 RESERVOIR AVENUE","city":"BRONX","state":"NY","zip":"10468"}},{"type":"Point","coordinates":[6432,8925],"properties":{"2001":0,"2011":0,"name":"10X342 - [INTERNATIONAL SCHOOL OF LIBERA]","street":"2780 RESERVOIR AVENUE","city":"BRONX","state":"NY","zip":"10468"}},{"type":"Point","coordinates":[6432,8925],"properties":{"2001":2920,"2011":0,"name":"10X430 - [WALTON HIGH SCHOOL]","street":"2780 Reservoir Ave","city":"Bronx","state":"NY","zip":"10468"}},{"type":"Point","coordinates":[6432,8925],"properties":{"2001":0,"2011":473,"name":"10X433 - [HS FOR TEACHING & THE PROFESSI]","street":"2780 RESERVOIR AVENUE","city":"BRONX","state":"NY","zip":"10468"}},{"type":"Point","coordinates":[6432,8925],"properties":{"2001":0,"2011":423,"name":"10X442 - [BRONX HIGH SCHOOL OF MUSIC]","street":"2780 RESERVOIR AVENUE","city":"BRONX","state":"NY","zip":"10468"}},{"type":"Point","coordinates":[6432,8925],"properties":{"2001":0,"2011":529,"name":"10X549 - [DISCOVERY H.S.]","street":"2780 RESERVOIR AVENUE","city":"BRONX","state":"NY","zip":"10468"}},{"type":"Point","coordinates":[6454,8959],"properties":{"2001":0,"2011":377,"name":"10X696 - [HS OF AMERICAN STUDIES @ LEHMA]","street":"2925 GOULDEN AVENUE","city":"BRONX","state":"NY","zip":"10468"}},{"type":"Point","coordinates":[7629,9009],"properties":{"2001":0,"2011":377,"name":"11X249 - [BRONX HEALTH SCIENCES HIGH SCH]","street":"750 BAYCHESTER AVENUE","city":"BRONX","state":"NY","zip":"10475"}},{"type":"Point","coordinates":[7629,9009],"properties":{"2001":2474,"2011":1773,"name":"11X455 - [HARRY S. TRUMAN HIGH SCHOOL]","street":"750 BAYCHESTER AVENUE","city":"BRONX","state":"NY","zip":"10475"}},{"type":"Point","coordinates":[7089,9037],"properties":{"2001":0,"2011":422,"name":"11X253 - [BRONX HIGH SCHOOL FOR WRITING]","street":"800 EAST GUN HILL ROAD","city":"BRONX","state":"NY","zip":"10467"}},{"type":"Point","coordinates":[7089,9037],"properties":{"2001":0,"2011":482,"name":"11X265 - [BRONX LAB SCHOOL]","street":"800 EAST GUN HILL ROAD","city":"BRONX","state":"NY","zip":"10467"}},{"type":"Point","coordinates":[7089,9037],"properties":{"2001":0,"2011":550,"name":"11X275 - [HIGH SCHOOL OF COMPUTERS AND T]","street":"800 EAST GUN HILL ROAD","city":"BRONX","state":"NY","zip":"10467"}},{"type":"Point","coordinates":[7089,9037],"properties":{"2001":0,"2011":483,"name":"11X290 - [BRONX ACADEMY OF HEALTH CAREER]","street":"800 EAST GUN HILL ROAD","city":"BRONX","state":"NY","zip":"10467"}},{"type":"Point","coordinates":[7089,9037],"properties":{"2001":3058,"2011":0,"name":"11X425 - [EVANDER CHILDS HIGH SCHOOL]","street":"800 E Gunhill Rd","city":"Bronx","state":"NY","zip":"10467"}},{"type":"Point","coordinates":[7089,9037],"properties":{"2001":0,"2011":479,"name":"11X544 - [H.S. FOR CONTEMPORARY ARTS]","street":"800 EAST GUN HILL ROAD","city":"BRONX","state":"NY","zip":"10467"}},{"type":"Point","coordinates":[7089,9037],"properties":{"2001":0,"2011":416,"name":"11X545 - [BRONX AEROSPACE H.S.]","street":"800 EAST GUN HILL ROAD","city":"BRONX","state":"NY","zip":"10467"}},{"type":"Point","coordinates":[6378,9057],"properties":{"2001":0,"2011":0,"name":"10X237 - [THE MARIE CURIE HIGH SCHOOL FO]","street":"120 WEST 231 STREET","city":"BRONX","state":"NY","zip":"10463"}},{"type":"Point","coordinates":[6173,9083],"properties":{"2001":0,"2011":444,"name":"10X213 - [BRONX ENGINEERING AND TECHNOLO]","street":"99 TERRACE VIEW AVENUE","city":"BRONX","state":"NY","zip":"10463"}},{"type":"Point","coordinates":[6173,9083],"properties":{"2001":0,"2011":422,"name":"10X284 - [BRONX SCHOOL OF LAW AND FINANC]","street":"99 TERRACE VIEW AVENUE","city":"BRONX","state":"NY","zip":"10463"}},{"type":"Point","coordinates":[6173,9083],"properties":{"2001":0,"2011":316,"name":"10X397 - [ENGLISH LANGUAGE LEARNERS AND]","street":"99 TERRACE VIEW AVENUE","city":"BRONX","state":"NY","zip":"10463"}},{"type":"Point","coordinates":[6173,9083],"properties":{"2001":4256,"2011":706,"name":"10X475 - [JOHN F. KENNEDY HIGH SCHOOL]","street":"99 TERRACE VIEW AVENUE","city":"BRONX","state":"NY","zip":"10463"}},{"type":"Point","coordinates":[6173,9083],"properties":{"2001":0,"2011":456,"name":"10X477 - [MARBLE HILL HS FOR INTL STUDIE]","street":"99 TERRACE VIEW AVENUE","city":"BRONX","state":"NY","zip":"10463"}},{"type":"Point","coordinates":[6173,9083],"properties":{"2001":0,"2011":445,"name":"10X546 - [BRONX THEATER H.S.]","street":"99 TERRACE VIEW AVENUE","city":"BRONX","state":"NY","zip":"10463"}},{"type":"Point","coordinates":[6560,9095],"properties":{"2001":2707,"2011":3013,"name":"10X445 - [BRONX HIGH SCHOOL OF SCIENCE]","street":"75 WEST 205 STREET","city":"BRONX","state":"NY","zip":"10468"}},{"type":"Point","coordinates":[6630,9152],"properties":{"2001":3880,"2011":4159,"name":"10X440 - [DEWITT CLINTON HIGH SCHOOL]","street":"100 WEST MOSHOLU PARKWAY SOUTH","city":"BRONX","state":"NY","zip":"10468"}},{"type":"Point","coordinates":[7255,9338],"properties":{"2001":0,"2011":402,"name":"11X513 - [NEW WORLD HIGH SCHOOL PROGRAM]","street":"921 EAST 228TH STREET","city":"BRONX","state":"NY","zip":"10466"}},{"type":"Point","coordinates":[7255,9338],"properties":{"2001":0,"2011":416,"name":"11X514 - [H.S. FOR SPORTS PROFESSIONS]","street":"921 EAST 228TH STREET","city":"BRONX","state":"NY","zip":"10466"}},{"properties":{"2001":0,"2011":0,"name":"02M690 - [SCHOOL FOR THE PHYSICAL CITY H]","street":"","city":"","state":"","zip":""}},{"properties":{"2001":0,"2011":0,"name":"04M695 - [URBAN PEACE ACADEMY]","street":"","city":"","state":"","zip":""}},{"properties":{"2001":0,"2011":0,"name":"08X516 - [HIGH SCHOOL PROGRAM FOR INTERI]","street":"","city":"","state":"","zip":""}},{"properties":{"2001":0,"2011":0,"name":"08X518 - [HIGH SCHOOL PROGRAM FOR DOCUME]","street":"","city":"","state":"","zip":""}},{"properties":{"2001":0,"2011":0,"name":"10X512 - [INDIVIDUAL PATHWAYS]","street":"","city":"","state":"","zip":""}},{"type":"Point","coordinates":[5998,3635],"properties":{"2001":2006,"2011":0,"name":"18K415 - [SAMUEL J. TILDEN HIGH SCHOOL]","street":"","city":"","state":"","zip":""}},{"type":"Point","coordinates":[6092,3266],"properties":{"2001":2457,"2011":0,"name":"18K515 - [SOUTH SHORE HIGH SCHOOL]","street":"","city":"","state":"","zip":""}},{"type":"Point","coordinates":[6092,3266],"properties":{"2001":0,"2011":227,"name":"18K922 - [SOUTH SHORE EDUCATIONAL COMPLE]","street":"","city":"","state":"","zip":""}},{"type":"Point","coordinates":[4865,2334],"properties":{"2001":2246,"2011":0,"name":"21K400 - [LAFAYETTE HIGH SCHOOL]","street":"","city":"","state":"","zip":""}}]}},"arcs":[[[3690,1676],[10,0],[12,-14],[1,-11],[-13,-2],[-17,18],[5,3],[-7,14],[9,-8]],[[3644,1944],[-18,-14],[-14,17],[3,44],[-2,7],[20,15],[13,-15],[-2,-54]],[[1729,3464],[-12,1],[-18,9],[-1,19],[-5,40],[63,-11],[10,-14],[-8,-4],[-5,-11],[-7,-3],[-5,-18],[-12,-8]],[[3120,3627],[15,6],[16,-6],[13,3],[13,-7],[45,-28],[23,-25],[14,-19],[10,3],[7,-3],[-6,8],[10,9],[-6,-11],[9,-14],[6,4],[6,-6],[-4,-5],[18,14],[-10,-11],[4,-5],[-2,-7],[7,-1],[6,-18],[0,-11],[-13,-3],[0,-5],[31,4],[1,-3],[-51,-8],[1,-8],[52,8],[2,-4],[-53,-10],[4,-17],[17,2],[3,4],[31,4],[0,-5],[-50,-7],[-5,-7],[0,-46],[7,-4],[3,-12],[-18,-3],[0,-14],[54,7],[1,-8],[-53,-6],[6,-51],[5,-26],[-9,-39],[5,-42],[4,-1],[87,-35],[-2,-5],[-86,34],[-1,-1],[8,-51],[4,-15],[-9,-2],[10,-59],[20,-40],[6,-9],[13,-27],[24,-21],[6,-7],[39,-36],[12,13],[1,-3],[-21,-26],[5,-5],[5,7],[8,-4],[3,3],[10,-8],[10,12],[3,-3],[-17,-15],[12,-11],[13,-7],[16,-25],[28,-37],[10,-28],[2,-16],[6,-13],[14,-1],[11,-17],[-2,-9],[13,-20],[20,-26],[12,-36],[19,-18],[6,7],[1,-11],[24,-9],[2,-16],[-7,-7],[6,-18],[9,-51],[3,-6],[0,-12],[-7,-15],[7,-13],[14,-7],[-9,2],[-6,-4],[-24,-24],[-50,-55],[-48,-64],[-13,-8],[-28,-32],[-51,-73],[8,-14],[-5,1],[-20,-21],[-24,-20],[-38,-46],[-7,-12],[-9,-7],[-13,-20],[-9,-23],[15,-13],[-14,9],[-6,-3],[-28,-29],[-30,-35],[-15,-22],[10,-8],[-1,-3],[-12,10],[-25,-24],[-25,-30],[-31,-25],[-16,-15],[-29,-36],[-11,-10],[-19,-22],[-24,-28],[-11,-15],[-6,-16],[-6,2],[-20,-19],[-15,-30],[-13,9],[-11,-8],[-12,-14],[-51,-83],[0,-7],[-19,11],[-11,-5],[-17,-21],[-7,-18],[-11,-17],[-9,-19],[-2,-11],[-8,1],[-11,-7],[-8,2],[-8,-7],[-11,-14],[-8,-15],[-11,-35],[0,-7],[7,-8],[-21,14],[-8,-7],[-13,-18],[-16,-24],[-7,-20],[4,-6],[-28,20],[-1,8],[-16,0],[-6,-6],[-32,-37],[-14,-22],[-45,-86],[-5,-1],[-6,7],[-25,-3],[-12,-11],[-12,8],[-8,0],[-12,-8],[-13,-4],[-11,-10],[-15,-29],[-13,-10],[-23,-1],[-14,-7],[-5,-4],[-32,-40],[-39,-61],[-22,-43],[-57,-101],[-50,-72],[-48,-44],[-13,-8],[-7,11],[-17,-3],[-10,5],[-4,7],[0,24],[-2,11],[-21,40],[-6,19],[3,21],[7,11],[23,-4],[14,-1],[57,1],[12,4],[13,8],[10,13],[32,36],[-11,11],[-4,-1],[31,34],[-27,-33],[11,-10],[6,7],[51,61],[11,28],[0,16],[-8,24],[-15,27],[-18,23],[-11,9],[-32,14],[-15,4],[-24,0],[-25,-7],[-14,-7],[-4,-8],[-9,1],[-9,-8],[-7,10],[-13,-14],[0,-11],[-25,-26],[-6,1],[6,-10],[-13,-13],[-7,5],[2,-8],[-13,-15],[0,5],[-8,-3],[1,-8],[-5,-12],[8,-18],[4,-16],[-4,-11],[5,-4],[-10,-11],[10,-10],[-12,-18],[16,-16],[-38,4],[-9,-8],[-10,-27],[-11,2],[-12,-7],[-19,-6],[-17,-9],[-33,-25],[1,-11],[-17,-21],[-8,4],[-11,-8],[-2,-6],[-9,-1],[-29,-29],[-12,-14],[-5,-1],[-21,-21],[-6,-11],[-6,4],[-20,-12],[-18,-14],[-10,-14],[-10,-1],[-5,5],[-22,-11],[-12,3],[-14,-7],[-13,-14],[-17,-4],[-13,-13],[-21,-12],[-43,-36],[-25,-15],[-13,14],[-19,-6],[-24,-18],[-48,-40],[-28,-37],[-12,15],[-17,1],[-10,14],[-24,3],[-23,-8],[-13,-13],[-6,2],[-11,-7],[-14,-6],[-19,-18],[-35,-39],[-17,-23],[-9,-17],[-8,0],[-33,-47],[-11,-12],[-25,-33],[-10,-20],[-20,-15],[-24,-1],[-13,9],[-13,14],[-11,7],[-20,7],[-6,29],[20,1],[-8,6],[-13,-1],[-10,2],[-36,-8],[-40,-11],[-8,1],[-41,-11],[-19,-8],[-13,-11],[-14,-14],[-12,-22],[-5,-11],[-19,-25],[-1,-8],[-19,-20],[-5,-11],[-5,6],[-9,-3],[-26,-23],[-11,-20],[-21,-33],[-6,1],[-33,-15],[-19,0],[-15,-4],[-11,1],[-20,-7],[-12,-1],[-7,-7],[-16,-4],[-28,11],[-31,0],[-23,-4],[-9,-7],[-7,4],[-15,-5],[-37,-21],[-28,-6],[-30,-15],[-15,-19],[-16,-7],[-22,-32],[-34,1],[-7,-2],[-7,2],[-31,-1],[-14,-5],[-17,-13],[-16,-16],[-20,1],[-20,8],[-12,11],[-24,29],[-2,20],[-26,15],[-6,4],[-9,14],[-6,22],[-9,19],[-18,42],[-2,11],[1,39],[-1,25],[-4,12],[1,11],[21,18],[4,10],[10,8],[7,21],[4,34],[-3,7],[18,15],[4,11],[-4,12],[13,16],[18,10],[10,18],[9,-14],[2,3],[-8,12],[18,13],[8,8],[12,-18],[12,8],[8,-3],[3,5],[-9,8],[29,19],[-8,13],[0,7],[14,1],[12,8],[9,-4],[18,-1],[11,4],[14,18],[5,8],[10,-8],[7,15],[5,7],[-4,4],[-16,9],[-6,9],[-3,-4],[-27,8],[5,20],[-3,15],[0,32],[-11,19],[-11,4],[12,21],[5,29],[5,7],[-1,19],[6,6],[7,27],[-3,6],[5,7],[10,23],[-5,13],[1,8],[-2,14],[-7,0],[-2,21],[5,4],[-1,18],[-10,10],[-5,15],[-16,19],[-7,18],[-11,-1],[-1,-6],[-7,3],[0,10],[5,1],[9,17],[-14,29],[-4,9],[0,20],[-2,12],[-6,4],[-7,22],[-25,28],[-6,-1],[7,9],[25,52],[46,48],[18,-17],[12,-1],[30,18],[18,17],[1,4],[19,18],[11,19],[20,7],[5,7],[1,21],[-6,11],[2,8],[27,14],[7,0],[12,-10],[7,-3],[13,11],[9,13],[4,15],[25,36],[7,-4],[18,3],[-2,4],[12,15],[9,1],[13,-8],[16,3],[2,3],[45,-10],[1,6],[9,-2],[-7,-4],[10,-1],[9,-10],[18,0],[3,5],[4,-6],[7,13],[7,-1],[6,-10],[1,-11],[5,-8],[14,4],[-1,17],[6,-21],[6,5],[-6,27],[11,-7],[8,-17],[31,14],[24,15],[-5,14],[7,3],[6,-8],[8,-5],[10,6],[2,11],[10,4],[-1,10],[9,11],[5,8],[2,18],[-3,0],[1,10],[13,21],[-2,8],[0,12],[3,21],[-4,15],[0,17],[8,19],[2,21],[23,54],[-1,7],[4,4],[3,11],[6,11],[-1,17],[8,15],[7,5],[-2,6],[6,46],[10,33],[4,14],[-5,14],[10,16],[-5,14],[7,1],[2,10],[-4,4],[8,10],[7,25],[-1,45],[5,13],[6,1],[6,13],[-2,11],[4,12],[5,6],[5,20],[-4,14],[5,9],[-1,23],[4,7],[-2,35],[-1,15],[-5,7],[6,5],[2,13],[-8,7],[4,9],[3,-1],[6,15],[0,-11],[23,22],[3,-3],[7,7],[-2,7],[6,9],[-4,5],[21,26],[8,-1],[19,30],[-1,6],[7,8],[7,13],[1,8],[11,15],[0,7],[8,7],[2,23],[2,7],[-1,10],[-18,58],[-6,20],[-25,47],[-23,23],[-14,32],[-12,54],[3,37],[7,50],[-3,33],[32,65],[5,10],[-3,15],[-5,3],[-1,19],[9,4],[-1,10],[-7,6],[2,12],[-5,11],[0,12],[9,-1],[1,7],[-7,0],[-8,26],[0,25],[-4,0],[-2,18],[9,14],[-1,14],[3,19],[-2,14],[-6,6],[8,73],[10,11],[0,12],[6,31],[21,22],[10,10],[0,5],[7,3],[6,-4],[7,5],[0,13],[14,7],[3,9],[8,14],[5,-3],[7,10],[1,8],[13,20],[-3,19],[13,-1],[12,15],[112,119],[8,11],[6,-6],[6,11],[11,3],[8,10],[4,-8],[8,-6],[0,-14],[4,-12],[5,-6],[-7,20],[3,5],[12,-8],[-4,8],[1,6],[-7,23],[14,7],[23,-1],[8,-4],[9,6],[0,-6],[6,-7],[9,2],[-1,21],[5,-3],[0,-18],[7,0],[1,13],[4,0],[1,-36],[-7,-7],[7,-4],[3,-10],[4,2],[6,-12],[-1,12],[7,-2],[3,10],[10,4],[10,-14],[0,21],[14,1],[6,-4],[1,14],[-4,21],[4,-3],[5,11],[7,1],[13,-1],[21,-22],[-2,-14],[12,-4],[-6,-11],[5,-3],[18,7],[2,-7],[-10,-7],[4,-15],[4,-3],[2,7],[2,-7],[17,0],[4,7],[16,-4],[1,5],[16,-4],[8,-5],[4,3],[20,-10],[5,23],[1,0],[-4,-23],[12,-6],[4,27],[8,-3],[-3,-36],[8,-7],[2,25],[4,0],[-4,-26],[8,-9],[2,27],[4,-2],[-4,-26],[11,-1],[3,26],[7,1],[22,-9],[-12,-45],[9,-3],[6,20],[4,-2],[-6,-18],[8,2],[4,16],[3,-1],[-5,-18],[13,-4],[7,36],[1,0],[-6,-32],[6,3],[6,-18],[8,0],[4,21],[0,-14],[18,-7],[1,22],[1,0],[0,-22],[11,0],[1,32],[2,0],[-2,-32],[19,0],[-1,-11],[7,0],[1,23],[4,0],[-3,-18],[15,0],[7,-12],[20,1],[11,-1],[0,11],[7,0],[0,14],[2,0],[3,-14],[14,1],[-4,40],[4,0],[1,-22],[11,3],[13,-16],[2,-10],[7,0],[-3,10],[3,16],[8,3],[6,-31],[1,3],[-5,32],[20,4],[3,-4],[27,6],[-1,2],[15,3],[10,0],[12,-11],[9,11],[3,8],[14,-4],[5,7],[0,13],[13,1],[1,-7],[6,7],[21,8],[44,6],[4,8],[54,14],[1,-3],[14,-1],[12,-7],[7,7],[22,-3],[-4,-7],[6,-7],[17,-8],[8,16],[4,0],[-9,-15],[12,-9],[7,1],[-1,19],[1,0],[3,-23],[22,-2],[7,-19],[2,21],[14,4],[14,-6],[16,2],[8,-3],[10,6],[2,5],[12,7],[0,11],[26,4],[12,-11],[9,3],[10,5],[-6,20],[2,1],[6,-19],[17,3],[-5,23],[9,-23],[8,7],[6,-6],[24,17],[-7,20],[9,-23],[7,4],[-8,22],[1,2],[10,-24],[8,11],[25,18],[-4,14],[19,8],[-15,-11],[7,-8],[43,33],[23,8],[15,3],[75,0],[11,4],[1,-3],[18,2],[26,-7],[26,-7],[24,0],[6,7],[44,0],[25,4],[29,10],[1,3],[30,15],[34,14],[31,23],[36,14],[19,0],[13,-7],[25,-7],[6,0]],[[7539,2356],[0,-5],[7,-6],[18,0],[2,-12],[16,-7],[1,-9],[8,0],[13,-13],[-2,-13],[10,-1],[1,-7],[-10,0],[0,-7],[-6,11],[-4,1],[-4,-7],[-6,2],[6,-7],[-4,-4],[17,-3],[11,0],[1,-11],[0,-15],[-27,-7],[-15,3],[-1,-10],[17,5],[13,-1],[-6,-11],[-18,-1],[-12,5],[-13,-4],[-18,10],[-13,12],[-7,6],[-12,13],[1,12],[-14,16],[0,7],[-7,7],[-13,4],[-11,-12],[-12,5],[-7,11],[-4,-1],[-10,8],[-15,0],[4,14],[6,10],[7,0],[5,7],[6,-3],[12,8],[14,17],[18,8],[14,6],[12,-2],[18,-8],[13,-21]],[[7958,2580],[27,-29],[18,1],[6,-16],[12,-14],[-2,-25],[2,-14],[-1,-9],[-5,-2],[-5,-25],[-9,-5],[-7,-2],[-4,-8],[-12,10],[-1,4],[-18,25],[-20,18],[-11,36],[13,58],[17,-3]],[[7709,2665],[7,-5],[10,3],[-2,-11],[8,-5],[1,-17],[-11,-6],[-8,6],[-31,-14],[0,10],[10,40],[16,-1]],[[7729,2677],[-9,-6],[-19,6],[-6,39],[20,-11],[14,-28]],[[7553,2611],[25,37],[4,47]],[[7582,2695],[9,3],[-1,5],[24,21],[39,-46],[-2,-43],[-36,-18],[-38,-11],[-24,5]],[[8303,2660],[12,-33],[-8,-5],[-19,27],[14,-33],[-49,-41],[-76,-6],[-11,7],[-45,7],[-15,54],[18,47],[46,36],[50,3],[45,-24],[5,-12],[8,-3],[5,-11],[20,-13]],[[8799,2815],[12,-7],[15,-5],[1,-39],[17,-7],[10,0],[23,-11],[11,13],[26,-24],[-8,-17],[-2,2],[-17,-25],[5,-3],[14,25],[13,18],[8,-1],[-3,-16],[7,6],[9,-3],[28,0],[39,-4],[6,7],[24,3],[61,26],[33,10],[4,7],[7,-7],[7,4],[7,-14],[19,10],[7,-20],[15,-26],[21,-46],[6,-6],[-6,-10],[5,-6],[51,-63],[19,-11],[19,-35],[2,-25],[-4,-80],[3,-14],[-6,-1],[-3,-14],[-17,4],[-8,-5],[-3,-7],[6,-6],[-10,-7],[1,14],[-5,6],[-7,-5],[-11,3],[-5,-4],[5,-6],[19,2],[0,-13],[12,0],[6,7],[-1,10],[5,4],[7,-4],[8,4],[6,10],[2,-35],[8,-36],[-9,4],[-7,-5],[-9,7],[-20,-3],[-9,6],[-5,-3],[-8,4],[-6,-4],[-12,7],[-20,-3],[0,-4],[-11,1],[-19,-1],[-12,-6],[-17,-1],[-13,-7],[-13,-11],[-14,-3],[-24,-18],[-11,-11],[-10,-18],[-9,-4],[-20,-4],[-12,-6],[-41,-1],[-35,12],[-26,3],[-10,3],[-20,3],[-35,-3],[-20,-6],[-26,-5],[-14,-4],[-18,-3],[-13,-3],[-15,3],[-33,-7],[-18,0],[-13,-3],[-50,-4],[-13,-3],[2,4],[-11,-4],[-22,-1],[-28,-13],[-22,2],[-17,-8],[-9,-2],[-23,-7],[-9,-5],[-17,-7],[-17,-2],[-14,-5],[-21,-3],[-12,-5],[-11,-9],[-8,6],[-22,-4],[-13,-6],[-7,2],[-19,-7],[-32,-6],[-11,-7],[-13,-1],[-6,-3],[-12,1],[-18,-8],[-14,-4],[-11,0],[-25,-7],[-6,-4],[-16,0],[-30,-13],[-4,3],[-13,-1],[-24,-10],[-8,0],[-32,-12],[-18,1],[-13,-5],[-31,-3],[-39,-6],[-36,-15],[-61,-22],[-9,-4],[-36,-11],[-11,-3],[-58,-26],[-26,-10],[-10,-4],[-28,-10],[-12,-7],[-13,-1],[-17,-7],[-10,-1],[-40,-17],[-27,-18],[-16,-7],[-14,-10],[-24,-12],[-23,-10],[-58,-26],[-30,-14],[-57,-29],[-20,-8],[-34,-18],[-15,-6],[-12,-8],[-25,-8],[-7,-2],[-18,-12],[-38,-15],[-20,-14],[-24,-10],[-29,-15],[-25,-18],[-18,7],[-22,-11],[-13,0],[-16,-10],[-10,-3],[-25,-13],[-10,0],[-29,-16],[-11,-4],[-28,-15],[-7,1],[-56,-23],[-9,-7],[-37,-17],[-30,-15],[-17,-3],[-20,-12],[-14,0],[-11,-7],[-24,-11],[-14,-3],[-18,-11],[-17,0],[-33,-18],[-12,0],[-31,-16],[-6,1],[-18,-4],[-27,-17],[-4,3],[-12,-1],[-22,-13],[-9,7],[-11,0],[-18,-8],[-27,-3],[-10,4],[-24,0],[-20,-5],[-21,-7],[-44,-18],[-21,-14],[-141,-71],[-27,-16],[-15,-6],[-16,-9],[-125,-60],[-24,-12],[-20,-13],[-30,-16],[-64,-31],[-30,-11],[-30,-17],[-26,-18],[-18,-6],[-10,-2],[-2,-25],[-2,0],[10,147],[0,36],[-10,58],[0,18],[5,22],[7,19],[13,18],[18,18],[19,16],[30,16],[6,3],[29,-1],[23,6],[18,14],[46,42],[21,14],[27,25],[14,5],[21,6],[15,1],[23,0],[18,0],[27,7],[34,11],[9,4],[35,26],[24,13],[13,1],[17,10],[13,0],[22,-2],[9,-17],[13,-9],[12,0],[8,6],[-2,-10],[5,-10],[20,-12],[12,-3],[32,7],[23,11],[15,-12],[11,0],[15,4],[29,16],[32,21],[18,14],[8,8],[10,17],[-6,15],[6,2],[24,22],[13,9],[12,6],[20,-3],[13,-5],[11,0],[9,-7],[15,0],[7,4],[7,-3],[26,11],[18,3],[13,-2],[6,-15],[17,9],[-3,4],[19,-2],[10,9],[19,1],[7,-1],[36,0],[20,4],[20,11],[69,44],[98,64],[30,19],[156,109],[69,49],[46,20],[34,2],[60,-15],[4,1],[102,6],[11,19],[10,1],[41,3],[132,48],[6,25],[6,6],[22,8],[26,10],[36,14],[8,0],[24,-17],[32,21],[14,15],[6,1],[20,13],[0,11],[12,0],[29,17],[11,15],[9,-2],[14,10],[3,6],[17,1],[11,11],[2,26],[2,-26],[7,1],[3,6],[15,4],[-2,21],[2,0],[2,-18],[5,10],[-2,18],[10,-3],[22,-14],[19,-14],[13,-4],[4,-4],[2,-28],[1,0],[-1,28],[26,-14],[3,14],[-24,11],[-24,15],[-8,1],[-11,9],[-2,7],[3,4],[-2,8],[8,10],[6,15],[20,7],[22,-11],[14,-21],[0,-25],[19,-14],[11,2],[1,15],[-5,26],[-7,3],[-6,8],[2,7],[-9,2],[-18,27],[-7,18],[7,14],[6,0],[14,11],[15,18],[21,0],[6,6],[101,7],[22,0],[13,5],[8,7],[17,0],[14,10],[16,18],[5,1],[14,14],[32,33],[9,3],[15,0],[6,-4],[-8,-10],[-10,-8],[-9,-22],[-8,-13],[-31,-27],[-8,-12],[-3,-15],[-12,-33],[0,-17],[4,-16],[-2,-10],[7,-15],[16,0],[10,14],[-1,23],[1,36],[38,38],[4,9],[16,13],[6,12],[0,10],[6,8],[12,3],[18,17],[8,26],[0,7],[-6,4],[-8,21],[13,23],[18,18],[8,14],[24,29],[18,19],[15,10],[27,6],[14,-6],[18,3],[7,-6],[13,-14],[1,-5],[-12,-8],[11,-14],[0,-7],[-7,-2],[1,-22],[-3,-4],[-3,-25],[-6,-20],[9,0],[-3,-7],[-8,1],[-11,-18],[-2,-17],[8,3],[-8,-8],[-10,-3],[1,-7],[-14,-15],[-19,-26],[-26,8],[-5,0],[-12,-12],[0,-5],[-21,-22],[1,-18],[9,-8],[0,-6],[15,-11],[8,-2],[-1,-7],[7,9],[12,7],[1,6],[13,8],[17,15],[3,20],[16,33],[12,15],[13,3],[5,-18],[-1,-7],[10,-18],[0,-18],[-1,-4],[8,-8],[2,-13],[10,-7],[22,2],[13,8],[12,-4],[14,1],[2,3],[23,-11],[6,8],[-7,6],[-10,0],[-14,5],[-13,10],[-6,-6],[-6,6],[0,36],[8,32],[9,20],[-6,34],[-1,18],[9,9],[0,10],[4,8],[-4,28],[5,7],[0,11],[11,12],[4,17],[-3,11],[-16,12],[-12,0],[-10,6],[-12,11],[-5,15],[-18,-5],[-5,-4],[7,-21],[-14,26],[-3,26],[10,31],[10,-3],[18,8],[14,0],[19,3],[17,-1],[15,5],[11,-1],[9,4],[9,-3]],[[8799,2832],[-29,-2],[-102,28],[94,116],[22,-8],[14,-133],[1,-1]],[[8238,3129],[0,-8],[7,1],[31,-23],[-63,-49],[40,18],[54,20],[6,-13],[-80,-50],[-26,-45],[-6,-61],[-33,33],[14,-52],[-6,-46],[-25,-54],[-13,-10],[-31,6],[7,22],[0,35],[-19,22],[2,20],[-35,86],[6,11],[-7,15],[13,38],[25,26],[8,-8],[44,32],[2,8],[43,15],[-14,14],[56,-3]],[[7964,3173],[-8,-45],[16,25],[23,-87],[0,-43],[-10,-21],[-3,-22],[7,-10],[0,-15],[2,-7],[9,-44],[14,-35],[-12,-7],[-20,24],[-1,18],[-13,22],[-16,59],[-13,25],[5,32],[-18,25],[-18,14],[-12,23],[54,-9],[1,5],[-44,24],[-18,47],[-1,36],[17,18],[22,-6],[22,-10],[15,-36]],[[7587,2818],[10,296]],[[7597,3114],[7,36]],[[7604,3150],[4,4],[-1,11],[9,6],[7,12],[4,17],[-2,4],[7,29],[6,15],[1,14],[-4,15],[-10,15],[-2,18],[-9,14],[-2,18],[-5,14],[-10,39],[11,8],[12,1],[63,-55],[11,-18],[31,-3],[13,0],[21,11],[5,61],[-7,14],[7,14],[14,-22],[11,-82],[12,-36],[5,-26],[0,-22],[14,-55],[24,-49],[32,-14],[-1,-15],[6,-11],[27,-33],[1,-7],[-12,-11],[-21,5],[-18,-23],[0,-11],[12,-14],[8,-3],[0,-8],[16,-3],[1,10],[6,3],[15,-13],[5,-33],[-32,-19],[-5,-10],[0,-18],[-4,-19],[3,-21],[6,-14],[1,-14],[11,-8],[2,-15],[17,1],[14,4],[5,6],[6,-4],[0,-7],[-11,-7],[-2,8],[-10,-4],[0,-8],[8,-6],[3,-10],[-8,-5],[-5,10],[-12,-10],[5,-25],[8,-36],[17,15],[0,-7],[-12,-12],[0,-10],[7,-22],[0,-11],[-7,-32],[-14,-19],[-3,-13],[-6,-12],[-18,-1],[4,-30],[-8,-41],[-11,-21],[-4,-47],[-15,-44],[-7,0],[-15,-30],[3,-12],[-6,-15],[-12,-11],[-23,6],[-19,0],[-20,4],[-63,-7],[-14,0],[-11,-4],[-49,0],[-11,4],[-28,8],[-5,10],[12,26],[12,9],[3,5],[22,11],[-5,3],[17,4],[7,-4],[6,-8],[20,15],[11,-9],[18,-1],[3,7],[12,8],[0,7],[24,21],[0,-10],[6,-12],[10,-10],[13,3],[6,15],[-4,4],[10,22],[30,-5],[9,7],[-5,1],[-29,3],[-20,3],[-1,11],[10,4],[8,12],[-1,18],[10,3],[4,43],[-2,11],[7,13],[1,9],[-8,7],[9,14],[5,0],[15,14],[6,18],[17,26],[0,17],[6,20],[-19,45],[-6,-10],[1,-6],[-6,-13],[5,-9],[7,-4],[4,-8],[-7,-24],[-5,-4],[-5,-12],[-5,-2],[-3,34],[-9,9],[-10,2],[-5,13],[-12,14],[-5,20],[-3,7],[-4,-6],[-5,4],[4,8],[-12,14],[-6,17],[-6,0],[-20,-18],[-16,7],[11,8],[-31,7],[-6,4],[-21,10],[-17,1],[-19,-7],[-27,-8]],[[7138,3732],[8,-8],[13,-18],[8,-8],[6,-16]],[[7173,3682],[-35,50]],[[7123,3765],[6,-5],[4,-14],[3,-4],[2,-10]],[[7138,3732],[-15,33]],[[7123,3765],[-14,17],[-7,11]],[[7102,3793],[5,0],[15,-18],[1,-10]],[[7653,3790],[-1,6],[10,4],[-9,-10]],[[7071,3850],[-8,15],[34,22],[16,11],[33,7],[17,4],[-11,46],[-5,33],[49,11],[-6,39],[-29,146],[-33,-6],[-15,-2],[-13,65],[0,7],[-6,25],[-5,29],[-12,61],[-18,-2],[-13,78],[-36,-10],[-5,28],[-4,51],[-12,61],[-5,15],[-19,130],[-2,3],[4,18],[-8,10],[-93,-24],[-95,-71],[-33,-31],[-47,-49],[-13,-27],[-64,-34],[-29,-24],[-8,18],[-43,-38],[-30,43],[-20,-28],[-23,-40],[-83,132],[13,7],[-25,62],[12,15],[-69,54],[-14,11],[27,36],[-81,61],[-55,40],[22,28],[-42,30],[20,26],[-26,21],[-39,32],[-15,10],[-101,80],[20,26],[-14,12],[-2,20],[-10,23],[-16,14],[-17,17]],[[5966,5197],[7,-2],[-7,27],[9,11],[15,4],[8,7],[30,-7],[1,5],[-31,9],[-9,27],[-12,14],[-4,15],[-6,10],[0,14],[4,11],[-7,15],[0,14],[-12,11],[-5,11],[12,29],[39,2],[1,1],[28,-10],[6,10],[-13,3],[-11,7],[-18,4],[-27,0],[-10,3],[-11,8],[-15,15],[-30,39],[-7,12],[-12,14],[-8,6],[-19,5],[-67,11],[-31,10],[-12,5],[-27,21],[-19,21],[-6,12],[-2,11],[-8,21],[-3,6],[2,7],[-16,30],[-13,18],[-13,10],[-28,15],[-35,15],[5,4],[54,28],[-4,1],[24,9],[18,20],[-2,7],[27,54],[8,-3],[0,10],[-25,7],[-2,-10],[9,-2],[-28,-59],[-8,-9],[-17,-13],[-5,-8],[-19,-4],[-29,-14],[-30,-8],[-57,26],[-28,11],[-34,8],[-33,-1],[-32,-4],[-11,-7],[-49,-29],[-26,4],[0,6],[-7,7],[2,20],[5,9],[11,0],[2,8]],[[5293,5822],[4,3]],[[5297,5825],[-12,9],[1,6],[12,0],[1,18],[-7,4],[6,15],[3,3],[10,18],[13,0],[0,8],[18,17],[1,8],[-18,7],[19,-4],[4,1],[-17,7],[1,7],[17,1],[0,6],[-12,3],[12,23],[29,43],[33,-19],[31,-7],[2,8],[-31,7],[-27,17],[18,22],[5,-10],[9,24],[-2,5],[13,21],[32,47],[10,14],[101,167],[5,6],[40,70],[38,58],[28,27],[8,4],[7,-6],[13,18],[12,6],[13,-2],[2,10],[10,6],[7,-5],[17,17],[2,10],[-7,1],[5,18],[6,-1],[1,5],[-6,7],[-49,19],[-6,24],[-1,14],[5,23],[22,43],[10,7],[13,18],[6,4],[15,0],[20,-4],[3,3],[17,-4],[13,-10],[-1,-4],[8,-17],[13,-8],[24,8],[26,28],[14,11],[12,4],[27,17],[17,27],[21,14],[38,43],[15,18],[17,14],[19,5],[-1,9],[7,15],[19,22],[8,1],[-6,6],[24,35],[30,35],[7,-4],[2,9],[6,5],[10,0],[1,8],[24,20],[56,-14],[5,-4],[70,-17],[40,-11],[19,-21],[36,-33],[6,-3],[20,-34],[-17,-18],[-4,-7],[-31,-33],[-44,0],[-18,-24],[-7,-15],[-1,-18],[6,-4],[4,25],[14,15],[33,7],[14,-4],[26,19],[3,-1],[31,22],[13,11],[1,-4],[-26,-19],[22,-21],[-11,-14],[2,-3],[19,21],[7,-1],[14,-13],[13,14],[-8,12],[20,-19],[-8,7],[-15,-15],[23,-24],[2,-7],[-17,-19],[0,-4],[15,-2],[9,-22],[-24,-27],[12,-17],[7,-7],[6,18],[12,7],[6,10],[1,-16],[10,-30],[-2,-26],[-4,-27],[7,-5],[29,4],[3,3],[61,8],[-10,15],[1,14],[6,4],[-7,47],[-5,24],[-1,12],[5,21],[8,7],[32,3],[23,7],[37,1],[12,-1],[-6,26],[-5,4],[18,28],[57,-36],[5,4],[64,104],[28,-17],[-3,-7],[9,-36],[-20,-29],[-17,-4],[-19,-32],[5,-8],[37,-24],[35,-23],[6,-3],[28,-18],[29,-22],[46,-29],[79,-50],[22,-11],[28,-18],[0,-7],[-12,-18],[-13,-19],[-7,0],[-12,5],[-2,-5],[-11,-2],[13,-11],[23,-15],[-2,-7],[-14,6],[-12,-21],[-4,-3],[-15,-19],[-21,-8],[-19,1],[-7,-3],[-23,-1],[0,-4],[9,-11],[0,-4],[11,-17],[38,-68],[6,0],[9,-14],[12,17],[20,33],[0,-3],[-31,-47],[20,-15],[38,-15],[12,-11],[12,3],[19,-6],[15,-8],[10,-9],[20,3],[17,13],[3,5],[-9,21],[-36,-18],[-5,0],[41,22],[13,-23],[10,-3],[33,28],[26,26],[20,16],[13,7],[9,10],[-1,11],[4,7],[11,7],[30,12],[17,-4],[8,18],[-11,10],[3,18],[-5,-4],[-9,-17],[-16,-3],[-13,-5],[-18,-2],[-18,-8],[-10,-1],[-15,4],[-21,15],[-14,1],[-10,13],[-6,18],[-7,11],[4,10],[-8,7],[-5,11],[9,11],[-17,-4],[-5,11],[12,5],[6,-3],[4,14],[-15,13],[-10,18],[2,7],[12,19],[3,11],[-3,33],[5,15],[-4,6],[2,41],[0,14],[-9,6],[1,5],[-6,3],[-1,11],[5,7],[-24,-8],[-4,4],[23,5],[-4,3],[-41,-4],[0,1],[43,3],[8,7],[-1,15],[-5,2],[0,23],[12,2],[-6,6],[5,9],[-10,3],[-12,-2],[-41,0],[-8,0],[-1,-7],[-8,-1],[-26,-2],[-5,3],[-1,27],[-7,4],[-28,1],[-3,6],[-9,1],[-2,12],[6,3],[-2,10],[-10,12],[-8,-1],[-2,19],[9,3],[-3,8],[10,14],[19,-8],[6,0],[12,12],[2,11],[16,3],[12,-1],[17,1],[10,7],[1,7],[-27,-1],[-7,5],[1,15],[2,7],[1,17],[16,11],[19,11],[-6,14],[-14,15],[1,12],[-1,27],[3,4],[13,5],[4,14],[4,-8],[9,-7],[17,-11],[33,-11],[5,3],[-5,15],[6,11],[-1,15],[11,10],[36,12],[11,-2],[5,-14],[13,-14],[19,0],[5,4],[-1,11],[8,-7],[-7,22],[1,2],[7,-20],[11,4],[-12,32],[13,-30],[8,-6],[6,6],[-2,8],[17,21],[8,0],[-6,19],[22,6],[1,-3],[-19,-4],[4,-17],[17,3],[12,-7],[31,-101],[2,-18],[-7,-7],[-11,-2],[0,-21],[4,-17],[4,-4],[14,-4],[13,4],[6,-10],[19,-1],[4,-10],[7,-5],[13,1],[13,4],[7,11],[-4,6],[-3,18],[6,8],[1,13],[10,9],[14,6],[11,-3],[13,7],[14,12],[-18,13],[2,3],[16,-13],[6,7],[4,10],[-4,43],[-6,12],[-13,18],[-1,7],[9,0],[6,4],[13,0],[11,8],[-5,13],[11,4],[11,-10],[15,-1],[20,18],[19,14],[15,15],[6,12],[18,18],[16,7],[10,-2],[20,-21],[19,-17],[12,-4],[8,-11],[31,-18],[13,-5],[-1,-12],[6,16],[-1,-16],[11,2],[8,23],[12,-2],[1,-16],[25,-4],[18,-4],[8,-5],[18,-2],[25,-8],[11,3],[8,-9],[19,2],[16,7],[1,5],[7,0],[0,-8],[7,-3],[13,0],[17,6],[1,-5],[22,-4],[0,4],[15,-6],[12,-10],[36,-14],[31,-4],[-3,-4],[5,-13],[-6,-5],[1,-10],[-6,-23],[-1,-20],[23,-65],[20,-5],[8,5],[10,11],[24,21],[83,0],[32,7],[12,5],[12,13],[-33,7],[1,1],[37,-8],[9,-7],[12,14],[4,12],[3,35],[-6,18],[-15,11],[-24,0],[0,3],[22,0],[3,1],[6,14],[29,15],[9,11],[12,-3],[7,3],[26,-8],[11,-6],[16,-19],[17,-18],[5,-11],[10,-32],[6,-11],[16,-18],[4,-32],[7,-8],[0,-6],[20,-27],[-2,-13],[-20,-14],[-41,-15],[-1,7],[-14,8],[-24,28],[23,-33],[15,-13],[2,-16],[44,-71],[42,-51],[20,-33],[19,7],[-19,-8],[8,-13],[2,-21],[12,-30],[7,-12],[8,-17],[3,-11],[15,-29],[18,-24],[11,-11],[41,-47],[15,-22],[15,-18],[14,-12],[-1,-10],[5,-11],[18,-8],[4,5],[17,-16],[17,-3],[23,-21],[8,-4],[0,-7],[12,-14],[15,-14],[13,-37],[10,-11],[19,-12],[14,-3],[12,-10],[15,-21],[16,-12],[9,-8],[-3,-24],[5,-10],[7,5],[-9,5],[3,17],[-8,15],[-18,14],[-12,19],[0,14],[-12,10],[-8,1],[2,-11],[-18,5],[-16,18],[-8,13],[-2,15],[-14,22],[-11,8],[-1,6],[-17,22],[-15,29],[-4,8],[5,21],[2,6],[0,26],[-3,7],[-11,37],[7,3],[12,7],[14,15],[5,14],[-5,15],[-8,21],[0,7],[-6,15],[-7,6],[-6,15],[6,8],[-2,3],[2,15],[7,7],[6,25],[0,10],[4,9],[15,27],[0,9],[11,11],[30,28],[8,-11],[58,-46],[54,-45],[61,-46],[11,-12],[14,-5],[3,-8],[94,-75],[16,-13],[60,-46],[18,-14],[17,-15],[39,-32],[36,-33],[10,1],[10,-15],[28,-18],[13,-14],[120,-103],[19,-14],[35,-31],[48,-41],[47,-36],[45,-36],[20,-18],[5,-40],[4,-44],[4,-43],[3,-50],[8,-97],[6,-41],[-7,-6],[-19,-36],[-12,-26],[-33,-68],[-19,-37],[-48,-100],[-50,-14],[-26,-4],[-73,-12],[-43,-13],[-91,-32],[-30,-12],[-11,-3],[-69,-33],[-15,-11],[21,-72],[32,-160],[7,-39],[1,-19],[-2,-13],[1,-46],[4,-106],[0,-26],[1,-21],[4,-69],[0,-32],[4,-145],[2,-57],[3,-51],[1,-1],[3,-45],[-3,-40],[1,-25],[4,-48],[-9,-54],[-17,-54],[-8,-22],[1,-6],[-5,-59],[-2,-32],[-4,-33],[-4,-14],[2,-19],[-2,-21],[4,-26],[4,-16],[2,-34],[-11,-4],[7,-32],[13,-32],[15,-29],[9,-34],[4,-18],[2,-46],[10,-37],[-1,-28],[-3,-8],[-22,-9],[-68,-30],[-67,-13],[-20,-2],[-72,-36],[-43,-32],[0,-39],[-3,-73],[-7,-18],[12,-22],[-17,-10],[19,-29],[32,-76],[-8,-14],[-1,6],[-9,-4],[-32,-5],[-5,5],[6,19],[13,16],[10,16],[-7,15],[-25,7],[-24,-7],[10,22],[-5,4],[-9,-26],[-9,-14],[-25,-19],[-6,-2],[-6,10],[6,8],[24,18],[-4,9],[-6,-6],[4,-4],[-13,-10],[-16,-15],[5,22],[0,7],[5,6],[1,15],[2,7],[0,16],[4,10],[-4,6],[0,22],[-2,1],[-5,17],[-8,19],[-12,18],[-17,15],[1,14],[-3,3],[-10,-7],[-10,12],[-9,6],[-16,15],[-19,15],[-36,24],[-7,-6],[5,-11],[15,-12],[57,-47],[5,-6],[30,-27],[3,-12],[13,-19],[6,-19],[-2,-4],[1,-34],[-5,-23],[-1,-13],[-6,-30],[-5,-7],[-2,-28],[-13,-12],[-29,-10],[-13,-12],[-18,-10],[-8,0],[-27,-12],[-11,-9],[-27,-8],[-15,-8],[-4,-6],[-23,-7],[-8,-8],[-19,-11],[-30,-11],[-17,-14],[-30,-11],[-29,-19],[-11,-21],[0,-6],[-13,-31],[-11,-14],[0,-6],[-8,-19],[0,-14],[3,-11],[-2,-18],[-18,-18],[0,-15],[-6,-4],[-5,-14],[-12,-10],[-12,10],[-2,14],[6,15],[10,19],[2,21],[-12,0],[-29,37],[-9,7],[-12,20],[-12,15],[-24,21],[-12,5],[-17,0],[-25,-8],[-15,-15],[-14,-21],[-10,-24],[-52,-95],[-14,-11],[-3,-18],[0,-18],[3,-8],[9,-13],[5,-15],[-4,-7],[16,-22],[7,-14],[5,3],[12,-6],[0,-7],[7,2],[13,-9],[6,-6],[2,-13],[-8,-1],[5,-7],[-6,-10],[-11,-4],[-8,-11],[-10,-3],[-3,-8],[-12,-7],[-5,4],[-10,-5],[-2,4],[-8,-4],[0,-6],[-13,-15],[-9,-2],[-3,-5],[-7,3],[-6,-3],[0,-7],[-10,0],[-12,-8],[-3,1],[-9,-22],[-8,0],[-12,-7],[1,-7],[-7,-4],[2,-4],[-8,-3],[-2,-10],[-11,2],[0,8],[8,6],[-8,8],[-25,-2],[-8,9],[-6,1],[-3,8],[-8,6],[-9,18],[-15,4],[-32,18],[-18,0],[-3,6],[-10,1],[-1,10],[-10,-3],[-4,-7],[-10,0],[-3,7],[9,5],[5,10],[1,15],[10,3],[-6,11],[2,3],[2,25],[12,15],[4,7],[8,-1],[-1,8],[14,11],[-1,14],[6,4],[-2,5],[8,2],[0,10],[-5,8],[12,1],[4,28],[10,14],[0,16],[10,9],[-4,9],[16,10],[-5,10],[6,7],[12,1],[25,-11],[15,-2],[12,2],[5,4],[12,1],[11,7],[1,6],[17,15],[60,69],[25,36],[11,31],[5,19],[-22,10],[-9,18],[-24,16],[-6,-1],[-17,5],[-8,7],[-17,21],[-20,14],[-26,-3],[1,10],[-50,-28],[-80,-47],[-1,1],[131,75],[-8,2],[1,11],[-10,15],[-9,8],[-20,6],[-12,9],[-12,3],[-7,8],[-32,18],[-6,7],[-11,3],[-7,4],[-16,2],[-25,19],[-22,15],[-53,26],[-18,17],[-8,0],[-11,4],[-34,25],[-28,13],[-10,2],[-24,21],[-23,6],[-46,26],[-6,7],[-27,4],[-12,7],[-10,11],[-7,12],[-18,24],[-14,15],[-11,15],[-5,14],[0,7],[-4,14],[0,8],[-5,14],[-3,22],[-7,18],[-8,40],[1,17],[11,37],[8,40],[14,14],[50,28],[22,-3],[17,-6],[21,-1],[35,-10],[16,-2],[20,1],[5,7],[-5,5],[-61,17],[-41,7],[-8,4],[-19,3],[-30,-13],[-36,-22],[-15,-5],[-5,-7],[-10,-35],[-1,-11],[-3,-11],[-11,-43],[-1,-11],[13,-62],[5,-15],[1,-14],[3,-11],[-1,-7],[5,-11],[1,-25],[5,-4],[5,-25],[-5,-3],[-6,11],[-6,7],[-1,10],[-17,14],[1,-7],[-8,1],[-2,11],[-4,-11],[-6,0],[-5,7],[-6,-15],[5,-18],[-5,-2],[-4,10],[-9,4],[-22,4],[-9,7],[-3,10],[-13,15],[-4,13],[-15,15],[-8,28],[0,16],[-4,10],[29,34],[13,13],[4,8],[-12,-14],[-12,2],[-3,-6],[-2,-15],[-20,-21],[-8,10],[13,15],[6,24],[15,8],[5,7],[10,-3],[3,3],[-1,10],[6,5],[-4,14],[-5,3],[-11,11],[9,5],[-8,0],[-4,-5],[11,-13],[11,-7],[-7,-20],[-11,1],[-8,-10],[-11,-4],[-6,-8],[-1,-14],[-6,-8],[-6,0],[-12,51],[0,12],[13,-33],[4,0],[-12,39],[9,7],[19,4],[-6,4],[-37,-8],[5,-33],[13,-58],[4,-23],[7,-27],[4,-25],[9,-49],[-2,-19],[-10,-7],[-55,3],[-11,5],[-5,7],[0,18],[-10,40],[-6,39],[-18,79],[-8,43],[-5,37],[-9,42],[13,22],[-12,11],[-23,-14],[4,-22],[0,-11],[6,-31],[17,-80],[7,-40],[8,-40],[16,-77],[15,-90],[-8,-4],[-66,-5],[-9,-7],[-6,3],[-92,-9],[-63,-10],[-42,40],[-8,14],[-2,26],[13,35],[7,4],[7,0],[1,15],[5,0],[0,14],[15,14],[10,2],[-4,9],[-9,5],[-11,-1],[-17,-7],[-6,-11],[-10,-7],[-30,3],[-17,7],[-9,8],[-10,0],[-6,10],[0,9],[-8,18],[-20,-1],[-10,7],[-6,26],[-7,6],[-2,12],[-29,29],[-8,6],[0,4],[9,0],[18,18],[-1,8],[6,10],[0,8],[-12,4],[-13,-5],[8,19],[-14,-11],[0,-10],[6,-5],[7,0],[6,5],[7,-1],[-7,-8],[-6,-2],[5,-8],[-1,-7],[-10,-7],[-13,3],[-1,23],[-18,-9]],[[6992,2049],[-20,-3],[-14,-7],[-13,16],[-15,23],[-2,39],[-5,11],[-4,36],[23,61],[24,15],[17,22],[21,21],[37,-11],[19,-13],[10,-12],[1,-7],[13,-29],[8,-8],[4,-13],[-7,-44],[-5,-11],[-24,-43],[-9,-6],[-12,-1],[-25,-18],[-12,-12],[-10,-6]],[[6947,2446],[-1,-48],[-11,5],[12,43]],[[6041,2467],[14,0],[10,-3],[1,-7],[19,-14],[23,-12],[2,-14],[18,-25],[13,-11],[11,-25],[4,-3],[8,-15],[-2,-37],[-2,-18],[-17,-8],[-10,-2],[-11,6],[-11,8],[-7,15],[0,10],[-25,36],[-18,14],[-8,9],[-24,18],[-23,24],[-7,29],[12,14],[14,8],[16,3]],[[6935,2453],[-15,-3],[10,89],[4,-22],[1,-64]],[[7256,2413],[-9,-3],[-20,-12],[-6,0],[-11,-10],[-39,-7],[-60,11],[-2,14],[-15,16],[-6,13],[-18,18],[-11,18],[0,12],[6,17],[20,28],[20,11],[5,-7],[26,-7],[77,-4],[9,-10],[11,-1],[17,-11],[2,-10],[11,-7],[4,-14],[18,-19],[-14,-10],[-15,-26]],[[6992,2565],[-12,-15],[-10,1],[7,19],[15,6],[0,-11]],[[6992,2669],[-31,-25],[2,29],[16,7],[13,-11]],[[7553,2611],[-3,41],[32,43]],[[6946,2633],[-26,-45],[1,38],[-26,45],[-10,57],[22,-7],[14,-14],[5,-23],[20,-51]],[[7204,2861],[-1,-72],[54,0],[-25,22],[20,25],[51,1],[-6,-117],[-90,-97],[-36,7],[1,43],[-36,29],[-3,43],[21,33],[29,12],[-38,89],[59,-18]],[[7425,2900],[3,-28],[-21,11],[-10,-53],[65,-44],[48,21],[-46,-196],[-113,-49],[-85,79],[11,19],[62,36],[-6,79],[14,21],[17,62],[5,40],[56,2]],[[7587,2818],[-27,7],[-2,11],[-18,4],[-2,-3],[-19,11],[9,5],[6,8],[7,0],[11,10],[10,12],[9,19],[-1,17],[-10,8],[-1,13],[-3,2],[3,10],[14,-4],[-9,8],[7,7],[-1,14],[6,25],[-5,5],[-8,35],[3,42],[31,30]],[[6923,2880],[-133,-36],[63,194],[143,101],[33,-51],[-20,-100],[-2,-72],[-84,-36]],[[7597,3114],[-21,15],[28,21]],[[7346,3169],[-44,-67],[46,8],[41,-28],[25,-54],[-45,-22],[-42,4],[-148,-58],[-51,-30],[-28,-24],[-47,4],[-7,32],[12,-7],[33,3],[1,53],[9,69],[-44,-18],[2,61],[36,1],[16,-19],[34,66],[15,0],[-2,11],[24,15],[7,-19],[38,-15],[-6,29],[65,-21],[41,40],[19,-14]],[[7546,3218],[-87,-157],[-61,126],[37,40],[86,32],[25,-41]],[[7350,3238],[-25,-44],[-179,8],[43,111],[169,86],[57,-53],[-26,-79],[-39,-29]],[[7071,3850],[-11,-17],[5,-7],[-2,-9],[8,-13],[17,-10],[14,-1]],[[7173,3682],[-9,-13],[-5,-42],[-11,-23],[0,-21],[6,-18],[10,-14],[6,-19],[1,-14],[-24,-10],[-19,-4],[-45,-6],[-17,-8],[-15,-18],[-28,-25],[-25,-16],[11,-14],[13,-13],[-5,-4],[-8,14],[-13,14],[-8,-1],[-24,24],[-24,57],[-1,18],[-11,19],[-11,12],[-25,5],[-119,216],[-8,-6],[11,-15],[41,-76],[2,-6],[48,-92],[15,-24],[-4,-12],[0,-14],[2,-11],[5,0],[5,-14],[14,-22],[19,-37],[0,-6],[9,-7],[6,-9],[0,-17],[9,-13],[29,-12],[-30,-25],[7,10],[-6,11],[-19,-8],[-17,-10],[-15,-15],[-14,-6],[-10,0],[-23,14],[-9,8],[-14,20],[-16,13],[-7,5],[-14,1],[-5,14],[-12,14],[-12,8],[-3,12],[-6,2],[-4,12],[10,0],[2,13],[-10,1],[-19,11],[-2,10],[-10,14],[3,4],[-17,11],[-7,8],[-13,-4],[-12,-10],[-13,3],[-7,13],[-14,13],[-9,11],[-7,17],[-1,21],[2,4],[-2,12],[-8,0],[-11,6],[-1,5],[-25,25],[-4,-8],[-7,8],[-7,-5],[3,-13],[30,-36],[-1,-5],[18,11],[3,-6],[3,-22],[24,-40],[15,-19],[24,-14],[14,-15],[33,-39],[21,-26],[4,-14],[20,-24],[9,7],[6,-4],[4,-8],[-4,-10],[14,-15],[12,-22],[-6,-14],[-7,-8],[-6,-11],[-32,-25],[-6,-14],[-17,-14],[-13,-4],[-19,-14],[-11,-16],[-2,-17],[6,-7],[-11,-10],[25,-30],[-19,-17],[-26,31],[-9,-10],[-6,7],[-24,-7],[-14,-11],[-42,-41],[-5,-9],[0,-12],[-6,-13],[-7,-7],[-17,-19],[-10,-10],[-11,2],[-29,-14],[-10,-7],[-6,7],[-40,4],[-52,65],[-54,14],[-89,55],[-29,20],[-101,62],[-8,-2],[-12,-11],[2,-12],[35,-24],[112,-66],[94,-57],[1,3],[12,-8]],[[6341,3063],[0,-3],[10,-7],[-5,-12],[5,-6],[7,0],[8,-14],[6,-1],[11,-7],[0,-14],[3,-8],[16,4],[35,1],[16,-2],[11,-7],[6,-22],[7,-6],[1,-11],[-8,-35],[-6,-5],[-4,-24],[4,-9],[0,-15],[3,0],[1,-12],[8,-19],[-5,0],[2,-7],[7,-1],[12,-10],[11,-4],[15,0],[16,-1],[12,-6],[11,-10],[5,-11],[-8,-14],[-13,-4],[-12,-5],[-7,1],[-15,-8],[1,-6],[8,-5],[18,11],[13,4],[0,3],[14,8],[-2,4],[11,-3],[14,-12],[0,-15],[-7,-13],[-30,-30],[-1,7],[-7,-7],[-4,-14],[4,-8],[-5,-2],[-5,-24],[-11,-10],[-15,-7],[-11,0],[-12,-11],[-21,-8],[-13,-2],[-17,-7],[-13,6],[-14,0],[-12,18],[-6,18],[6,11],[1,26],[0,15],[4,6],[2,15],[-21,22],[0,17],[-22,1],[1,7],[-32,36],[-50,60],[-5,11],[-8,9],[-12,10],[-13,-4],[2,-4],[-11,-10],[1,-6],[18,-22],[13,-5],[8,-11],[1,1],[35,-43],[7,-3],[13,-12],[0,-8],[14,-14],[6,-11],[5,-3],[13,-12],[0,-31],[4,-11],[2,-33],[4,-35],[-66,-19],[-1,10],[-12,25],[-32,-2],[-5,-1],[-7,8],[-16,-4],[-9,-7],[1,-8],[17,-18],[9,-24],[-14,-3],[-32,-11],[-48,10],[-51,61],[-6,11],[2,4],[-2,13],[7,24],[-7,3],[6,32],[5,10],[21,18],[9,8],[-3,7],[-5,33],[-1,15],[19,17],[-8,7],[-42,-36],[17,-37],[-42,-38],[6,-12],[-6,-22],[-16,-14],[-10,-13],[17,-23],[27,-32],[-1,-3],[27,-33],[4,1],[12,-13],[6,-13],[7,-1],[13,-14],[31,-1],[17,-5],[21,-1],[7,-7],[29,17],[18,1],[18,7],[15,-4],[12,5],[12,-5],[22,15],[11,3],[30,1],[11,7],[9,2],[12,-9],[2,3],[23,-4],[7,1],[13,-4],[21,3],[10,-2],[10,7],[9,-2],[29,5],[6,10],[32,12],[0,3],[23,14],[15,1],[25,-4],[16,2],[2,5],[10,3],[17,-21],[5,-11],[-5,-10],[2,-7],[-8,-11],[4,-15],[10,-15],[1,-13],[12,-30],[7,-22],[-1,-21],[4,-21],[10,-16],[0,-39],[1,-8],[13,-61],[11,-29],[1,-14],[6,-5],[-4,-17],[6,-32],[14,-32],[25,-41],[-54,-115],[-37,-12],[0,-10],[-19,0],[-29,-14],[-17,-3],[-4,-2],[-31,-7],[-19,1],[-12,-1],[-12,-7],[-28,1],[-18,-11],[-23,-4],[-19,-10],[-18,-1],[-7,30],[-7,20],[-6,7],[-7,18],[0,16],[6,17],[6,26],[-4,18],[-7,18],[-20,30],[4,17],[-7,14],[2,5],[-14,21],[-13,-11],[-2,3],[14,11],[-9,8],[-22,3],[-10,-6],[-15,-12],[-13,0],[-25,-11],[-12,4],[-18,10],[0,9],[-6,3],[-10,-1],[-6,-10],[10,-4],[4,-6],[-36,-8],[-18,-10],[-25,-8],[-13,0],[-8,10],[0,11],[6,11],[-6,22],[4,21],[0,21],[2,1],[1,29],[-3,8],[0,11],[-4,10],[-4,29],[3,11],[-11,32],[-11,12],[-8,25],[-7,3],[-6,12],[-10,12],[-4,13],[-19,17],[-8,1],[-20,13],[-1,8],[-26,14],[-10,0],[-21,15],[-8,2],[0,5],[-23,-7],[-12,-16],[0,-6],[-12,-23],[-15,1],[-25,19],[-22,22],[-13,10],[-2,7],[-7,0],[-6,8],[-8,3],[-2,12],[10,12],[-4,8],[-11,-7],[-16,0],[-4,4],[-6,-4],[-14,-19],[0,-6],[19,-25],[14,-8],[11,-3],[6,-4],[-1,-10],[13,-4],[0,4],[20,-11],[19,-19],[17,-18],[9,-7],[28,-35],[17,-19],[4,-10],[10,-14],[27,-8],[5,-7],[19,-16],[3,-9],[16,-12],[8,-18],[9,-7],[5,-14],[15,-11],[14,-8],[8,-10],[-1,-15],[7,-7],[-6,-7],[-46,-28],[-14,-16],[-6,-11],[-17,-11],[-7,4],[-12,-6],[-4,5],[-9,-9],[-20,2],[-4,5],[-13,-4],[-6,4],[-18,-8],[-7,-2],[-8,5],[-11,15],[-25,26],[-6,22],[-5,4],[69,60],[-4,5],[-50,-41],[-22,-19],[-13,11],[-19,4],[-12,11],[2,33],[4,28],[11,15],[-5,19],[-6,10],[-11,5],[-24,9],[-10,-2],[3,-18],[11,-19],[10,-25],[6,-5],[-8,-17],[4,-11],[5,-36],[9,-14],[5,-12],[11,-16],[-18,-5],[-12,0],[1,-13],[47,6],[9,-7],[2,-5],[-2,-17],[7,4],[7,-3],[18,-15],[-2,7],[17,-11],[-12,6],[1,-5],[12,-8],[15,-4],[22,4],[13,-4],[50,0],[7,7],[13,3],[0,2],[20,11],[6,-1],[10,7],[26,10],[13,0],[13,-6],[13,0],[12,-11],[1,-22],[-3,-24],[6,-5],[-10,-8],[-22,-3],[-9,-4],[-5,8],[-22,-7],[-7,7],[-15,1],[11,-11],[7,3],[6,-10],[17,-1],[2,3],[11,-3],[-1,6],[13,2],[5,6],[19,3],[14,-7],[6,-11],[-6,-13],[-23,0],[-13,-4],[-15,3],[-16,-4],[-22,5],[-21,7],[-8,0],[-19,10],[-27,8],[-16,7],[-39,10],[-26,-2],[-21,3],[-33,-1],[-32,-4],[-16,-7],[2,-9],[-17,3],[-6,7],[-11,-6],[-28,2],[-19,4],[0,3],[-17,1],[-2,-3],[-41,3],[-1,-4],[-12,0],[0,4],[-38,0],[-4,7],[-16,-1],[8,-10],[-12,8],[-18,-1],[-49,4],[-34,-3],[-35,-4],[-58,-8],[4,-22],[8,0],[57,7],[67,-17],[57,-15],[44,0],[58,3],[42,0],[18,1],[-24,1],[45,2],[4,-7],[11,-56],[14,-56],[-8,-15],[-61,-3],[-24,8],[-12,-8],[-38,-2],[-64,-1],[1,3],[-26,7],[-13,-3],[-3,-4],[-19,0],[-7,-8],[6,-2],[-56,-8],[-17,-6],[-15,-1],[-26,-3],[-5,-4],[-11,3],[-15,-2],[-7,3],[-15,0],[-19,-3],[-2,-9],[-4,8],[-33,-3],[-18,-4],[-27,0],[-22,-4],[-70,-8],[-21,-2],[-4,-3],[-18,-1],[-20,-8],[-7,1],[-30,-5],[-17,-2],[-16,-7],[-25,-2],[-12,-6],[2,-12],[-6,12],[-5,3],[-25,-4],[-6,-3],[3,-13],[-7,14],[-10,3],[-18,-4],[-7,-7],[-2,6],[-12,1],[-25,-7],[-9,3],[-21,-4],[7,-45],[-1,-1],[-7,46],[-36,-6],[-37,-4],[-53,-10],[-41,-5],[-25,1],[-13,-3],[-12,3],[-31,-3],[-19,6],[-32,-2],[-24,-4],[-7,-4],[0,-12],[-2,23],[-5,28],[-12,11],[-10,0],[-8,11],[-45,17],[-37,8],[-24,3],[-20,8],[-16,17],[-6,18],[-2,24],[-11,30],[13,30],[16,22],[13,11],[26,10],[22,15],[12,4],[25,4],[36,-5],[20,-7],[13,-3],[17,3],[14,-4],[13,0],[22,5],[7,-1],[4,-8],[0,-11],[112,-35],[24,5],[12,-5],[13,-8],[14,1],[14,6],[12,16],[-5,4],[21,28],[-4,14],[-18,-17],[-8,-23],[-8,-10],[-17,8],[-18,17],[-31,10],[-3,9],[2,9],[25,55],[0,11],[-12,-7],[-31,-18],[-8,-8],[-17,-10],[-19,-10],[-5,-5],[-12,-2],[-23,7],[-9,5],[-41,11],[-5,11],[1,15],[29,23],[11,6],[-2,3],[-19,1],[-5,4],[0,13],[5,2],[20,5],[73,44],[-1,0],[-25,-14],[-2,3],[29,18],[-2,4],[-17,-10],[0,3],[-50,-32],[-1,2],[51,30],[5,6],[-9,12],[-85,-57],[0,-9],[-6,0],[1,13],[44,29],[-13,20],[-11,-6],[-3,7],[19,14],[-7,11],[8,1],[9,16],[12,8],[-2,8],[-14,-11],[-2,3],[16,10],[-6,4],[-29,-18],[-13,0],[-6,5],[4,9],[19,15],[-10,15],[17,14],[-32,-18],[-12,-7],[-17,32],[3,3],[-24,38],[-8,11],[-35,35],[-67,55],[-29,21],[-38,21],[-41,15],[-36,7],[-20,-3],[-13,6],[-12,11],[-19,11],[-79,12],[-75,13],[-13,4],[-14,10],[-18,15],[-5,1],[-27,29],[-12,15],[-8,18],[-11,11],[-13,9],[-5,12],[-5,22],[-8,17],[-38,47],[-12,22],[-9,24],[-9,55],[-9,55],[-4,11],[0,25],[-2,24],[1,8],[-5,26],[0,14],[5,22],[3,64],[9,55],[5,7],[9,32],[6,11],[31,90],[25,65],[-37,14],[2,4],[35,-14],[10,21],[9,15],[-19,19],[0,4],[42,52],[-3,1],[10,11],[21,-18],[10,11],[7,-4],[25,33],[26,-21],[3,3],[13,-11],[21,28],[18,26],[-63,50],[-4,3],[6,7],[67,-53],[9,11],[6,-3],[4,6],[-30,23],[1,3],[24,-21],[5,6],[6,-6],[2,6],[-16,16],[2,6],[-11,29],[13,19],[-7,6],[-2,-6],[-12,10],[8,11],[12,-8],[-3,-6],[6,-4],[9,10],[-23,18],[3,1],[21,-18],[6,4],[15,-8],[3,4],[-45,38],[2,1],[45,-36],[22,-14],[8,10],[-22,18],[1,3],[22,-21],[3,3],[-54,42],[5,5],[5,-6],[25,-18],[6,3],[8,11],[-38,30],[4,5],[16,-17],[10,3],[8,12],[-13,11],[4,6],[21,-17],[15,0],[16,-18],[12,10],[-39,30],[3,6],[39,-32],[13,18],[-4,6],[-42,34],[0,3],[44,-33],[7,7],[5,-3],[5,7],[-49,40],[8,12],[50,-38],[7,9],[-40,36],[4,3],[44,-32],[10,17],[-53,44],[33,30],[29,-22],[6,6],[33,-28],[13,20],[-52,44],[14,9],[9,0],[45,-35],[29,-23],[21,24],[-54,44],[0,7],[15,14],[17,3],[44,-36],[10,9],[25,-19],[2,1],[-30,27],[-8,4],[6,8],[38,-29],[6,7],[-19,14],[-4,-7],[-22,18],[7,4],[-33,26],[5,10],[22,-18],[5,8],[0,-15],[37,-28],[3,6],[-21,18],[5,8],[-17,14],[7,11],[68,-52],[5,2],[22,34],[-60,48],[13,8],[10,-1],[7,7],[-3,4],[13,8],[13,-1],[17,22],[0,15],[7,11],[-5,3],[3,22],[3,18],[-3,7],[-10,-19],[-18,-50],[-13,5],[-7,-13],[-14,5],[-12,-29],[-5,-3],[-11,4],[3,3],[-28,10],[-14,1],[-16,-43],[0,9],[36,99],[-12,4],[-20,-53],[-4,-2],[-14,-36],[-3,3],[11,33],[-48,-1],[-31,-82],[-75,-12],[-22,7],[-9,9],[-9,14],[-12,108],[-3,17],[-11,12],[9,0],[25,-14],[15,-133],[2,-12],[10,-1],[0,13],[67,7],[25,68],[9,2],[0,9],[-9,3],[0,14],[-12,1],[-1,18],[-45,-21],[-2,3],[43,21],[-5,7],[-9,-3],[-17,10],[-5,-3],[-8,6],[-14,-17],[-4,1],[25,28],[-6,5],[-25,-27],[-1,1],[25,29],[1,-1],[22,28],[-8,5],[-31,-33],[-21,18],[31,36],[-6,5],[-32,-34],[-26,-31],[-11,7],[26,32],[-15,19],[6,21],[-6,6],[-13,-9],[9,10],[-1,8],[7,0],[2,16],[-33,1],[-4,12],[16,2],[-1,14],[13,4],[2,15],[-5,11],[-15,-3],[-2,3],[9,22],[24,18],[5,-1],[39,32],[-1,2],[45,36],[12,-16],[-36,-28],[10,-12],[-5,-6],[16,-14],[59,68],[-19,26],[-19,-15],[-2,4]],[[4385,4476],[67,54]],[[4452,4530],[22,8],[19,-6],[6,13]],[[4499,4545],[11,20]],[[4510,4565],[7,15]],[[4517,4580],[14,17]],[[4531,4597],[7,16]],[[4538,4613],[7,18]],[[4545,4631],[19,-5],[3,5],[15,-7],[5,13]],[[4587,4637],[-23,29]],[[4564,4666],[4,14]],[[4568,4680],[8,20]],[[4576,4700],[6,18]],[[4582,4718],[12,22]],[[4594,4740],[17,34],[-3,5]],[[4608,4779],[0,3]],[[4608,4782],[10,3],[1,8]],[[4619,4793],[10,21]],[[4629,4814],[7,16]],[[4636,4830],[8,21]],[[4644,4851],[6,4],[-1,8],[9,18]],[[4658,4881],[29,50]],[[4687,4931],[1,3]],[[4688,4934],[5,4]],[[4693,4938],[-1,13]],[[4692,4951],[1,4]],[[4693,4955],[0,7],[24,8],[25,1],[3,-13],[17,-2],[16,22],[25,-9],[7,0],[1,12],[25,3],[6,-6],[1,10],[31,4],[24,3],[1,-4],[17,1]],[[4916,4992],[2,0]],[[4918,4992],[25,-4],[0,12],[12,-2],[17,0],[1,-6],[14,0],[-2,-14],[10,-15],[15,-3],[-5,-23],[6,-6],[17,43],[4,-1],[-18,-46],[15,-15],[10,21],[4,-3],[-12,-24],[12,-1],[14,-7],[-22,-44],[7,-4],[19,38],[5,3],[20,-23],[7,-6],[0,10],[-21,25],[10,2],[6,-5],[34,-37],[2,5],[-31,37],[-13,18],[8,9],[55,-61],[6,8],[-61,67],[4,4],[61,-51],[4,9],[-59,50],[2,3],[13,-11],[6,-2],[3,10],[-67,53],[6,5],[15,-15],[17,14],[-13,11],[-24,23],[7,9],[21,-21],[34,-32],[1,0],[1,26],[-31,46],[9,5],[37,-52],[-5,-36],[6,0],[0,-11],[46,-37],[3,15],[-32,26],[1,22],[-1,26],[-10,21],[-2,32],[7,23],[-4,13],[7,4],[-2,10],[6,3],[6,20],[-2,2],[8,15],[-6,4],[25,77],[6,10],[-4,3],[12,22]],[[5200,5288],[1,1]],[[5201,5289],[12,18]],[[5213,5307],[13,13],[-7,8],[7,18],[14,-8],[1,7]],[[5241,5345],[1,1]],[[5242,5346],[3,8]],[[5245,5354],[3,6]],[[5248,5360],[7,14],[11,11],[13,37],[3,7]],[[5282,5429],[2,3]],[[5284,5432],[6,21],[-9,7],[5,4],[6,-6],[7,4],[54,-20],[3,5],[0,11],[-8,7],[-31,-1],[-2,15],[-24,-3],[0,19],[2,17],[8,29],[-1,15],[-2,9],[-5,33],[-5,15],[-3,1],[-6,31]],[[5279,5645],[-1,4]],[[5278,5649],[-2,14],[5,19],[17,26],[23,34],[13,13],[9,7],[17,16],[18,9],[33,6],[27,-3],[29,-7],[29,-11],[38,-21],[0,3],[27,-14],[2,-2],[-14,-35],[4,-22],[8,1],[-2,20],[-4,1],[12,19],[6,-1],[6,11],[11,-4],[-5,-13],[3,-11],[10,21],[25,-12],[13,-9],[12,-11],[11,-19],[0,-10],[8,-16],[6,-20],[11,-27],[29,-31],[23,-16],[47,-17],[21,-4],[19,-2],[45,-13],[18,-24],[12,-16],[0,-24],[12,-29],[29,-87],[14,5],[5,-15],[0,-8],[-5,-20],[-64,-20],[-10,3],[-14,-16],[7,-22],[-5,-11],[-48,-16],[2,-7],[7,1],[8,-25],[-2,-7],[-23,-10],[12,-34],[-25,-8],[2,-6],[25,8],[16,-47],[9,-15],[4,3],[-6,22],[-2,4],[-7,25],[-8,21],[12,4],[0,4],[-13,-4],[-3,11],[2,7],[21,7],[2,3],[-11,33],[2,8],[44,14],[-8,25],[6,8],[8,6],[40,12],[23,7],[23,-22],[6,-17],[-11,-7],[-13,-5],[-9,-14],[6,-11],[3,-15],[5,0]],[[6341,3063],[-11,8],[-2,-4],[12,-7],[1,3]],[[4385,4476],[-4,4],[69,56],[2,-6]],[[4499,4545],[-41,14],[8,20],[44,-14]],[[4517,4580],[-40,14],[8,19],[46,-16]],[[4538,4613],[-43,14],[9,21],[41,-17]],[[3809,4627],[9,-14],[-4,-21],[-6,-5],[-14,1],[-27,17],[-10,15],[-12,-7],[0,4],[11,6],[-6,8],[1,15],[21,2],[24,-13],[13,-8]],[[4587,4637],[-74,26],[7,19],[44,-16]],[[4299,4702],[45,-13],[12,-16],[19,4],[7,7],[5,-3],[-1,-10],[-11,3],[-13,-4],[21,-31],[-3,-6],[-3,-28],[-15,-28],[-31,-21],[-20,2],[-18,-10],[7,-11],[26,1],[0,-1],[-26,-3],[-18,-22],[16,22],[-6,13],[-62,-38],[6,-11],[14,6],[-27,-17],[12,10],[-6,11],[-36,-21],[8,-14],[-16,-20],[-3,1],[14,19],[-7,13],[-18,-8],[-26,2],[-14,10],[-11,22],[4,18],[31,39],[24,30],[21,25],[36,46],[8,25],[4,4],[14,0],[37,3]],[[4568,4680],[-41,19],[10,19],[39,-18]],[[4582,4718],[-37,17],[11,22],[38,-17]],[[4608,4779],[-17,7],[1,4],[16,-8]],[[4619,4793],[-38,18],[10,19],[38,-16]],[[4636,4830],[-36,17],[8,21],[36,-17]],[[3881,4881],[9,-8],[30,-29],[-7,-7],[-1,-15],[-14,0],[-6,-7],[-35,35],[-8,-10],[33,-35],[-32,-30],[-37,37],[18,20],[-5,5],[33,35],[6,-6],[16,15]],[[4658,4881],[-26,16],[36,44],[19,-10]],[[4688,4934],[-7,4],[4,7],[8,-7]],[[4916,4992],[0,7],[25,1],[1,-1],[-24,-3],[0,-4]],[[5245,5354],[-16,16],[2,2],[17,-12]],[[5279,5645],[-32,-3],[0,3],[31,4]],[[5647,6506],[-19,-18],[-17,-26],[-19,-33],[-40,-59],[-15,-24],[-27,-43],[-17,-15],[-32,-46],[-1,-9],[-17,-25],[-34,-42],[-4,-1],[-31,-43],[-18,-19],[-20,-20],[-8,-11],[-23,-22],[-6,-10],[-8,-1],[1,7],[14,33],[13,17],[10,26],[8,15],[11,10],[36,52],[45,72],[17,18],[15,22],[20,39],[18,28],[17,15],[25,42],[20,31],[12,21],[12,13],[2,11],[16,22],[4,2],[15,17],[11,18],[9,7],[12,7],[9,1],[11,14],[5,-3],[-4,-5],[-1,-46],[-14,-29],[-13,-10]],[[5715,6787],[7,4],[1,-12],[-12,-6],[-7,3],[-17,-19],[1,8],[15,14],[-1,14],[11,8],[2,-14]],[[6016,7264],[5,-13],[13,-21],[19,-13],[46,-23],[23,-20],[18,-34],[10,-26],[2,-17],[-25,-43],[-7,-5],[-15,-17],[4,-3],[-13,-15],[-5,3],[-24,-15],[-1,-10],[-61,-89],[-6,-5],[-12,-46],[-21,-22],[-11,-10],[-19,-1],[-26,-24],[-11,-5],[-13,1],[-38,31],[-7,3],[-30,6],[-43,9],[-14,15],[-4,19],[6,28],[47,72],[7,11],[6,15],[2,-1],[15,19],[14,10],[19,11],[17,-11],[10,-3],[36,-1],[0,22],[-7,4],[17,0],[-20,3],[6,-11],[-2,-11],[-25,-3],[-1,3],[13,20],[-12,3],[-7,7],[0,22],[15,29],[9,22],[0,32],[-10,24],[-1,9],[12,45],[7,9],[0,7],[13,28],[8,4],[16,0],[31,-4],[13,-8],[12,-16]],[[5923,9094],[4,-12],[10,0],[10,6],[9,2],[28,-6],[13,-9],[-1,-28],[-5,-10],[0,-16],[5,-14],[14,-17],[12,-5],[14,4],[4,15],[-11,7],[-11,25],[5,7],[7,-3],[30,-17],[-7,-13],[0,-10],[6,-7],[19,14],[26,14],[18,0],[38,-14],[19,-7],[18,-14],[13,-22],[1,-18],[-6,-18],[-2,-29],[-8,3],[4,-7],[-1,-8],[-12,-28],[-15,-26],[2,-3],[-25,-43],[-18,-4],[10,-8],[-11,5],[-13,-1],[-2,-6],[9,-1],[4,-10],[-6,-7],[2,-4],[-13,-18],[-25,-22],[-7,-18],[-11,-14],[1,-3],[-16,-26],[-4,-4],[-21,12],[-11,21],[-6,-3],[-5,-22],[15,-12],[3,-13],[6,-1],[-4,-11],[-8,-1],[-20,-23],[1,-20],[11,23],[2,-3],[-12,-18],[-2,-8],[-23,-36],[-33,-61],[-7,-16],[-19,-35],[-9,-18],[-14,-25],[-32,-62],[-12,-40],[-1,-7],[-10,-24],[-28,-66],[-25,-61],[-5,-15],[-8,-17],[-3,-19],[-1,-50],[6,-62],[2,-10],[2,-27],[2,-10],[0,-22],[2,-39],[0,-14],[4,-47],[0,-23],[2,-46],[4,0],[1,-62],[-1,-37],[-3,0],[-1,-27],[3,-9],[-3,-35],[-6,-51],[0,-21],[4,-21],[11,-26],[6,-11],[15,-21],[22,-31],[21,-41],[-1,-5],[10,-28],[4,-18],[4,-1],[2,-29],[-2,-75],[-4,-21],[-8,-12],[-6,-15],[-59,-43],[-40,-37],[-10,-13],[-19,-35],[17,-9],[-1,-3],[-17,7],[-17,-47],[-1,0],[-29,-46],[-16,-11],[-30,-19],[-16,-15],[-8,-17],[-3,-33],[5,-25],[7,-21],[3,7],[5,-1],[4,-11],[-6,-11],[8,-35],[6,-4],[1,-19],[-7,-12],[-9,-24],[-18,-28],[-17,-22],[-27,-32],[-33,-43],[-34,-58],[-41,-58],[-38,-58],[-26,-29],[-51,-64],[-17,-23],[-20,-35],[-14,-16],[-20,-28],[-18,-29],[-29,-40],[-56,-87],[4,-2],[-30,-45],[-2,1],[-15,-26],[-2,1],[-8,-15],[0,-7],[-10,-19],[-6,-38],[1,-11],[-8,-34],[1,-11],[0,-50],[1,-21],[-7,-1],[-27,15],[-1,-14],[19,-11],[2,-7],[-5,-3],[-15,10],[1,-14],[13,-58],[4,-25],[14,-18],[13,-12],[8,-21],[2,-11],[-4,-25],[1,-6],[-3,-34],[-22,-116],[-11,-56],[-8,-34],[-17,-51],[-16,-47],[-5,-14],[-8,-21],[-9,-11],[-15,-17],[-5,-1],[-38,-4],[-18,-3],[0,-10],[-58,-8],[-73,-8],[-2,19],[-13,0],[-93,-19],[-49,-10],[-16,-4],[-27,-18],[-11,-11],[-16,-11],[2,-11],[-6,-6],[13,-18],[-14,-12],[-12,12],[-11,2],[13,-18],[-3,-3],[-22,25],[-4,-4],[13,-16],[-3,-1],[-10,13],[-6,1],[-9,-6],[-3,-8],[20,-23],[-5,-3],[-20,22],[-8,-7],[21,-25],[-3,-5],[-15,16],[-9,9],[-10,-2],[-7,-8],[24,-26],[-5,-3],[-23,26],[-13,-11],[-8,-10],[-25,-18],[12,-19],[17,11],[2,-7],[-17,-8],[5,-7],[-6,-3],[-18,32],[-27,-10],[1,-16],[-5,1],[-14,-4],[6,-14],[-5,0],[-6,13],[-3,-2],[0,-11],[-10,11],[3,-15],[-4,-3],[-1,17],[-5,0],[0,11],[-7,0],[-5,-10],[-14,10],[-4,-3],[-25,29],[-13,18],[-7,17],[-1,18],[-12,-3],[-5,8],[11,2],[-16,5],[-7,31],[5,22],[6,4],[3,-6],[8,21],[-12,4],[13,73],[6,43],[0,-12],[20,-4],[0,16],[6,14],[-23,4],[-2,-9],[6,38],[12,92],[1,1],[30,-7],[1,3],[31,-6],[6,35],[-11,0],[1,7],[-20,4],[0,7],[29,-4],[1,12],[-6,2],[1,15],[11,-2],[11,68],[4,36],[-4,3],[-59,8],[1,11],[65,-8],[2,43],[-54,5],[6,53],[2,0],[51,-4],[3,61],[-54,1],[0,6],[56,-2],[1,18],[-22,2],[0,5],[22,0],[6,79],[0,11],[-11,0],[-1,7],[13,0],[0,19],[-21,3],[0,10],[-12,1],[-2,11],[15,-1],[2,9],[-23,5],[23,0],[32,-2],[5,11],[-50,9],[0,5],[48,-5],[3,8],[4,25],[-10,1],[1,7],[-46,7],[2,10],[46,-6],[1,7],[9,-1],[4,23],[-17,2],[1,6],[-39,6],[3,11],[39,-6],[1,14],[-39,6],[1,11],[40,-7],[3,15],[-41,6],[1,9],[41,-5],[1,15],[-39,6],[1,9],[20,-2],[7,23],[-22,10],[1,1],[26,-10],[14,49],[-5,8],[9,0],[17,58],[8,10],[26,51],[5,-3],[7,14],[-8,6],[3,8],[-33,18],[6,18],[5,-1],[32,-18],[6,15],[19,33],[7,-4],[7,15],[-39,22],[2,4],[40,-22],[12,21],[-41,22],[4,6],[40,-23],[6,14],[-38,21],[0,11],[44,-23],[13,-10],[8,7],[6,12],[-56,32],[5,10],[56,-32],[6,10],[-2,4],[8,9],[-59,34],[4,7],[59,-34],[12,24],[-59,33],[5,7],[57,-33],[13,22],[-58,33],[3,7],[44,-25],[10,18],[-45,25],[5,7],[44,-24],[15,29],[-9,7],[11,-2],[6,11],[-38,20],[5,7],[37,-22],[6,11],[-18,10],[-1,-3],[-17,10],[5,4],[-8,7],[45,-25],[6,11],[-22,13],[-1,-5],[-20,13],[2,5],[38,-20],[24,43],[6,2],[5,10],[-6,1],[25,49],[11,0],[26,51],[-36,-3],[-9,3],[45,4],[0,7],[14,29],[5,11],[44,84],[75,143],[12,26],[8,13],[34,60],[35,68],[22,43],[24,43],[28,55],[6,10],[13,25],[47,79],[18,40],[40,76],[20,44],[59,83],[16,26],[4,-1],[13,19],[-6,3],[5,7],[1,-8],[6,15],[-4,12],[-4,-1],[-13,7],[5,10],[12,-7],[8,-21],[10,22],[-3,6],[-25,16],[40,82],[6,-3],[12,22],[23,-12],[20,27],[17,36],[22,45],[6,8],[8,23],[15,28],[8,36],[2,22],[8,24],[3,19],[10,29],[14,36],[5,14],[14,25],[8,21],[0,23],[-2,17],[-5,11],[4,2],[-10,24],[5,23],[-1,23],[-7,23],[1,11],[8,11],[5,-3],[2,9],[10,1],[6,7],[12,10],[3,-3],[17,11],[18,21],[13,22],[29,65],[19,29],[14,32],[13,16],[0,3],[7,14],[12,28],[17,25],[27,48],[31,65],[1,34],[5,13],[-4,10],[5,23],[11,25],[25,53],[14,29],[18,23],[12,3],[19,22]],[[6239,8964],[-10,19],[-13,17],[-12,11],[-18,11],[-6,0],[-64,28]],[[6116,9050],[15,22],[52,34],[9,23],[22,0],[15,-6],[19,-22],[13,-11],[16,-21],[2,-18],[-19,-70],[-13,-6],[-8,-11]],[[6457,7144],[-22,-4],[-21,21],[12,11],[11,4],[14,-8],[7,-12],[-1,-12]],[[6888,6909],[-10,-4],[-31,3],[-21,0],[-19,-5],[-17,-8],[-125,30],[-13,3],[-18,-1],[-25,8],[-12,8],[-7,10],[-7,21],[-6,23],[-9,11],[-6,3],[-11,-1],[-11,5],[-12,57],[5,25],[14,71],[8,11],[22,16],[14,-4],[8,3],[10,7],[-2,9],[-10,5],[14,-2],[-1,-11],[13,3],[16,-7],[31,-30],[23,-28],[0,8],[9,-11],[26,-11],[36,-4],[15,-4],[20,-10],[40,-33],[13,-15],[12,-10],[5,0],[15,-7],[14,-11],[19,-25],[7,-51],[-15,-26],[-21,-21]],[[6429,7302],[33,-39],[-39,-40],[-27,4],[7,6],[1,30],[5,3],[1,25],[19,11]],[[8408,8071],[-16,-6],[-4,22],[19,-1],[1,-15]],[[8158,8237],[-7,-13],[-48,0],[-29,8],[2,25],[52,3],[4,-8],[26,-15]],[[8548,8573],[-5,-18],[-12,1],[0,18],[6,7],[11,-8]],[[8507,8577],[-2,-20],[-12,3],[-5,10],[10,18],[9,-11]],[[8376,8642],[21,-3],[5,-35],[-3,-12],[6,-7],[3,-15],[1,-19],[-2,-10],[5,-7],[16,3],[2,-6],[-16,-8],[1,-3],[15,-18],[23,-23],[11,-5],[18,5],[6,-7],[6,1],[0,-5],[-16,-6],[0,-7],[9,-4],[-4,-14],[11,-18],[11,-4],[9,6],[11,-10],[7,-8],[-20,-9],[-1,-3],[27,10],[4,-3],[-30,-8],[1,-4],[18,4],[2,-15],[-12,-10],[-2,-9],[-6,-6],[4,-10],[-4,-8],[-10,-4],[-2,-10],[5,-8],[-5,-15],[6,-3],[42,12],[1,-1],[-42,-11],[0,-4],[-12,-3],[6,-22],[5,-6],[46,11],[-46,-12],[8,0],[34,8],[-32,-8],[2,-18],[6,0],[8,-24],[-1,-9],[2,-25],[-3,-18],[-8,-11],[2,-10],[-8,-8],[-8,4],[-2,-4],[4,-20],[-6,-2],[-6,14],[-13,-6],[-4,3],[-11,15],[-4,0],[-9,11],[1,22],[-7,14],[-10,7],[-16,0],[-5,19],[5,2],[-7,8],[2,6],[-2,6],[-8,2],[3,8],[-19,32],[-9,-3],[-8,6],[5,7],[7,1],[-3,21],[-18,22],[-12,26],[-5,6],[-1,18],[5,1],[-1,15],[8,15],[12,7],[8,10],[-5,18],[3,7],[-5,14],[12,3],[-5,8],[-20,-3],[11,7],[2,10],[-19,-6],[-5,18],[19,7],[-2,4],[-42,-12],[37,12],[-6,2],[-1,9],[-32,-8],[31,10],[3,5],[-12,-1],[-3,7],[12,8],[-11,21],[-12,8],[7,6],[9,19],[-21,15],[17,-11],[6,10],[5,-3],[14,15],[7,13],[-1,4]],[[8777,8542],[-13,-29],[-8,2],[-6,-18],[13,-42],[-17,-76],[2,-10],[26,-37],[2,-8],[-20,-4],[-38,44],[-7,12],[4,14],[8,40],[-22,44],[-7,2],[0,19],[13,0],[0,13],[-9,1],[-2,19],[-10,-1],[0,7],[4,-4],[8,1],[2,10],[0,15],[0,28],[0,18],[0,48],[-4,17],[4,8],[24,1],[25,-18],[20,-23],[0,-17],[54,-62],[-46,-14]],[[8477,8686],[3,-18],[-6,-14],[-11,-8],[-10,11],[-13,0],[-8,-11],[-6,3],[7,15],[4,12],[26,6],[5,4],[9,0]],[[8687,8704],[-6,-11],[-6,11],[7,10],[5,-10]],[[8657,8723],[-7,-15],[-6,-4],[0,6],[13,13]],[[8502,8743],[5,-2],[0,-12],[-6,-4],[1,18]],[[8487,8750],[7,0],[-2,-14],[-5,-3],[-12,3],[5,11],[7,3]],[[8745,8805],[-2,-8],[-9,1],[4,8],[7,-1]],[[8799,8844],[-7,-10],[-13,3],[3,16],[17,-9]],[[8725,8949],[15,-25],[-21,5],[-31,13],[12,18],[25,-11]],[[8661,9012],[-4,-1],[0,14],[8,4],[2,-11],[-6,-6]],[[8515,9030],[-7,0],[6,6],[1,-6]],[[8442,9173],[13,-3],[0,-10],[-19,3],[1,-12],[-11,-6],[0,18],[5,10],[11,0]],[[6116,9050],[-27,1],[-10,-3],[-24,10],[-15,11],[-5,10],[-25,27],[-7,12],[-16,8],[-13,0]],[[5973,9126],[1,0]],[[5973,9126],[-15,3],[-6,-5],[19,35],[35,100],[27,74],[46,162],[-2,7],[4,6],[14,41],[4,21],[26,95],[-3,7],[7,29],[7,25],[7,0],[24,82],[-3,8],[8,4],[6,25],[15,87],[-3,17],[7,12],[0,7],[8,10],[9,20],[3,-2],[30,-10],[107,-48],[33,-13],[14,-1],[33,-14],[14,-4],[12,-6],[74,-30],[115,-43],[3,0],[52,-24],[29,-11],[64,-23],[25,-11],[64,-24],[35,-15],[57,-19],[39,-18],[48,-18],[4,0],[17,-10],[9,0],[33,-14],[7,13],[-6,8],[7,1],[4,7],[-12,6],[-1,11],[8,5],[6,-8],[11,0],[4,14],[8,0],[7,18],[-1,11],[3,11],[-8,7],[5,11],[9,-7],[11,7],[-15,15],[7,7],[12,-1],[6,4],[7,11],[15,4],[10,18],[-1,6],[-16,1],[-5,7],[6,14],[18,16],[5,10],[7,8],[6,-1],[0,-7],[6,-4],[14,11],[7,1],[-43,-67],[47,-22],[13,22],[56,-34],[40,-13],[-2,-32],[10,-2],[54,0],[5,-23],[3,-21],[9,-30],[23,-39],[1,-8],[-10,-28],[0,-14],[23,-77],[6,1],[32,-12],[18,-6],[31,-14],[15,-5],[31,-13],[37,-13],[30,-13],[37,-14],[45,-18],[5,13],[-14,-3],[-3,25],[10,4],[62,-22],[20,-11],[40,-13],[16,-7],[27,-8],[43,-14],[24,-8],[21,-7],[22,-8],[83,-25],[18,-8],[48,-16],[94,-33],[19,-8],[-5,-13],[-6,-6],[-3,-13],[-21,-34],[-10,2],[8,-22],[-21,-65],[-16,-19],[-6,-25],[-20,-18],[-6,5],[-17,-11],[-1,-16],[-18,-46],[-8,-3],[-22,-22],[-12,28],[10,12],[-13,7],[-17,-31],[11,-6],[2,-24],[15,3],[-4,-22],[-23,-3],[-10,7],[-12,-8],[-6,3],[1,15],[-48,36],[0,-15],[17,-6],[-6,-14],[16,-2],[3,-21],[16,-10],[19,-4],[3,-36],[15,11],[15,-3],[-1,-29],[14,-4],[29,58],[38,75],[13,25],[17,8],[38,14],[14,33],[7,36],[0,15],[7,9],[-19,6],[-2,7],[9,23],[17,16],[13,6],[8,8],[16,4],[7,11],[1,7],[6,7],[16,4],[-1,-15],[2,-13],[-17,-12],[11,-14],[21,-3],[17,3],[26,3],[29,-17],[2,-15],[-8,-33],[-13,-22],[-11,-7],[-13,-21],[-6,-18],[-2,-19],[7,-6],[9,-2],[22,29],[-3,-11],[-8,-18],[7,-16],[16,25],[7,22],[7,3],[5,-8],[-1,-7],[-11,-8],[3,-7],[13,-10],[-2,-22],[0,-14],[-13,-4],[-6,-11],[-12,-6],[-12,-33],[1,19],[-8,10],[-11,4],[-25,3],[-19,-5],[-24,-16],[-19,-20],[-15,-56],[-6,-40],[20,-45],[-7,-24],[-1,-10],[-16,-4],[-8,0],[-7,-5],[6,-10],[-12,-10],[-10,-16],[-5,-21],[4,-21],[6,-8],[-1,-7],[-23,0],[-22,-7],[-11,-11],[-9,-22],[-15,1],[-5,-20],[4,-13],[16,-12],[2,-25],[-6,-32],[-20,-17],[-10,-15],[-5,-23],[-7,-6],[-12,8],[-9,18],[-1,18],[-9,20],[-35,62],[-6,33],[4,11],[10,2],[4,8],[-6,21],[-6,40],[0,19],[-6,11],[-4,22],[2,21],[-5,11],[-10,6],[-8,0],[-6,-13],[8,-33],[-6,-4],[-11,0],[-6,11],[-13,3],[-7,-14],[0,-7],[10,-15],[-1,-10],[-10,25],[-13,19],[-8,7],[-14,21],[-16,22],[-11,6],[-8,0],[-15,12],[-7,0],[-8,17],[-6,-5],[-5,-11],[-8,-5],[-4,3],[-25,-47],[17,-6],[13,4],[-1,-4],[19,-10],[19,-40],[7,-112],[-74,-1],[-9,-18],[0,-17],[-4,-5],[0,-28],[4,-5],[16,-6],[2,-10],[-6,-5],[14,-22],[6,-3],[-2,-12],[-15,-24],[-1,-14],[0,-12],[8,-4],[10,4],[9,-7],[2,-7],[-9,-11],[16,14],[3,-6],[15,10],[1,-2],[-17,-12],[7,-8],[15,-3],[7,3],[10,33],[4,0],[-11,-31],[-7,-27],[3,16],[-16,0],[-7,3],[-6,-4],[0,-8],[8,-3],[5,-15],[-6,-7],[-9,-2],[-4,-8],[-13,14],[-1,8],[-9,10],[-11,-11],[-14,4],[-6,6],[-15,0],[14,-3],[6,-7],[10,0],[8,-22],[7,-11],[6,-3],[-2,-17],[5,-5],[6,-35],[4,-7],[-1,-16],[-19,-10],[-6,-5],[-6,-17],[1,-19],[5,-10],[2,-25],[-1,-22],[9,-2],[-8,-2],[5,-35],[10,-26],[3,-4],[5,-21],[17,-18],[-1,-4],[8,-18],[11,-10],[0,-8],[44,-2],[8,-1],[0,-8],[-6,3],[-25,0],[-17,-3],[-2,-7],[-21,-21],[3,-5],[-6,-17],[5,-12],[7,-2],[23,8],[-15,-8],[-7,0],[5,-7],[-18,-11],[5,-11],[9,0],[9,8],[0,10],[11,-10],[8,0],[15,13],[23,10],[7,13],[24,-1],[4,3],[13,-13],[3,-16],[-1,-17],[6,-19],[13,-33],[-4,-9],[0,-15],[4,-15],[20,-28],[11,-11],[11,-7],[14,-1],[4,8],[8,0],[2,-4],[19,-7],[4,-8],[39,-21],[16,-8],[3,-18],[-6,-6],[-8,4],[-8,-5],[-8,1],[-16,-26],[-4,-10],[-14,-5],[-10,-21],[-10,-3],[-11,-8],[-15,3],[0,8],[5,14],[-17,26],[-4,0],[-6,15],[-7,10],[-16,10],[-9,12],[-8,0],[0,-8],[7,-14],[15,-11],[7,-10],[3,-19],[0,-19],[14,-23],[8,-1],[11,-12],[11,-24],[13,-11],[12,12],[3,-2],[-6,-11],[24,-10],[30,-3],[50,-29],[36,-22],[26,-14],[13,0],[5,4],[-4,10],[11,-3],[2,-18],[6,-5],[5,-14],[0,-17],[-7,-12],[-8,-7],[-23,-7],[-20,6],[-11,9],[0,6],[-10,4],[-14,19],[-9,9],[-4,-6],[-8,4],[2,3],[-12,3],[-15,8],[-17,11],[-32,28],[-26,16],[-13,3],[-10,-5],[-11,-10],[-7,11],[-19,17],[-14,8],[-18,15],[-13,22],[-18,21],[-19,11],[-11,1],[-2,-5],[-14,8],[-23,2],[-13,5],[-8,6],[-10,-3],[-21,0],[-4,7],[-15,1],[-12,-7],[-25,-3],[-24,-8],[0,-5],[-10,4],[-9,-2],[-44,-16],[-40,-17],[-8,-7],[-28,4],[-11,-1],[-18,-4],[-19,-14],[-18,-21],[-10,-18],[-4,-27],[1,-13],[8,-19],[-7,-4],[10,-32],[-11,-3],[-30,3],[-22,7],[-16,8],[-18,7],[-7,4],[-13,21],[0,19],[-6,14],[-14,32],[-4,10],[-14,29],[-1,15],[-4,10],[5,23],[9,14],[3,44],[-12,32],[1,17],[17,24],[4,3],[3,18],[-5,2],[1,8],[1,28],[-2,22],[0,11],[-7,4],[-6,30],[-6,3],[-2,11],[-16,33],[-3,16],[-8,13],[-10,32],[1,28],[7,21],[18,24],[11,10],[22,29],[4,10],[-4,32],[-1,8],[-3,30],[1,16],[-3,15],[3,16],[-7,3],[-3,18],[-11,-1],[4,-22],[5,-20],[-3,-4],[4,-21],[0,-24],[6,-27],[-2,-1],[0,-13],[-6,-16],[-5,-7],[-30,-32],[-7,-4],[-7,-13],[-9,-29],[2,-20],[6,-16],[3,-22],[4,-4],[9,-33],[10,-21],[14,-40],[0,-4],[12,-36],[-1,-15],[-5,-17],[2,-7],[-7,-8],[-5,0],[-7,-8],[-16,-10],[-4,-8],[1,-10],[-4,-14],[-14,-22],[2,-4],[-22,-48],[-2,-17],[-11,-26],[-6,-20],[-8,-4],[-9,-22],[-17,-1],[-5,8],[-13,36],[-22,18],[-19,10],[-2,8],[-11,11],[-24,-3],[-8,-15],[-14,0],[-11,4],[-18,14],[0,-7],[17,-10],[16,-5],[16,5],[9,0],[16,-4],[17,-12],[12,-7],[10,-14],[-6,-22],[4,-8],[-6,-13],[-6,-8],[-4,-14],[2,-21],[10,-16],[11,-6],[6,-7],[4,-11],[-2,-15],[15,-7],[1,-11],[-4,-7],[-19,-11],[-11,7],[-11,0],[-4,-13],[-8,-1],[-16,3],[-45,-3],[-11,3],[-22,-2],[-15,9],[5,3],[11,-7],[3,8],[-9,7],[-20,0],[8,-10],[-25,14],[-11,7],[9,5],[-5,17],[-6,0],[-5,-14],[-3,14],[-2,19],[4,0],[1,-13],[10,-2],[4,33],[-4,14],[-6,35],[-3,-9],[-19,-8],[13,-18],[3,-15],[-11,23],[-18,13],[-63,14],[-58,7],[-19,30],[-19,37],[-18,25],[-17,10],[-87,29],[-5,-18],[42,-17],[36,-17],[14,-16],[12,-26],[7,-1],[1,-21],[44,-107],[-7,-19],[-24,-43],[-34,-62],[-12,-7],[-1,-11],[3,0],[-2,-14],[-11,2],[5,20],[-14,-7],[-22,3],[-1,7],[-19,4],[-1,-8],[-41,5],[4,9],[-1,12],[-5,11],[-12,3],[-24,0],[-8,-4],[-50,-10],[-8,-7],[-20,6],[-3,7],[-12,8],[-5,10],[-16,15],[-4,11],[-12,18],[-12,-6],[-8,6],[-7,12],[-10,-15],[-2,2],[14,23],[-17,-5],[-6,4],[-15,1],[-6,-7],[-4,18],[-23,-1],[-24,-3],[-4,-12],[-5,27],[-7,-7],[4,-19],[-6,19],[-2,-8],[-6,7],[-3,-7],[-15,-3],[-11,3],[-2,-7],[-6,4],[-1,-14],[-49,-15],[-23,-4],[-5,-7],[-15,-14],[-9,-3],[-15,-16],[-8,-14],[-31,-37],[1,-4],[-22,-28],[-10,-7],[5,-7],[-16,-17],[-13,-8],[-8,-12],[-15,-14],[-10,-6],[-27,5],[-9,0],[-44,24],[-49,25],[-25,17],[-10,17],[-9,23],[-13,14],[-17,12],[-12,4],[-55,-2],[-17,7],[7,19],[-7,11],[-19,4],[-34,58],[-10,14],[-21,28],[-5,12],[-2,13],[1,15],[-4,10],[5,11],[-2,23],[6,66],[0,61],[0,53],[-2,65],[-11,141],[-8,83],[-2,29],[3,22],[6,36],[14,43],[8,15],[23,50],[5,22],[20,51],[0,10],[12,36],[6,7],[7,15],[24,44],[38,62],[8,28],[25,47],[15,24],[8,2],[-5,5],[13,20],[9,-4],[-4,11],[27,42],[23,30],[11,7],[25,36],[1,4],[42,65],[12,-8],[9,15],[-7,8],[39,60],[18,55],[4,18],[6,35],[4,8],[-4,18]]]}